,Unnamed: 0.11,Unnamed: 0.10,Unnamed: 0.9,Unnamed: 0.8,Unnamed: 0.7,Unnamed: 0.6,Unnamed: 0.5,Unnamed: 0.4,Unnamed: 0.3,Unnamed: 0.2,Unnamed: 0.1,Unnamed: 0,id,price,beds,baths,parking,title,address,propertyType,status,bond,Coordinates,Latitude,Longitude
0,0,0,0,0,0,0,0,0,0,0,0,0,14303265,330.0,1,1,0,$330,"409/757 Bourke, Docklands VIC 3008",Apartment / Unit / Flat,recentlyUpdated,1433.0,"(-37.818769, 144.9482517)",-37.818769,144.9482517
1,1,1,1,1,1,1,1,1,1,1,1,1,16089992,430.0,2,1,1,$430 pw,"38/60-68 Gladesville Boulevard, Patterson Lakes VIC 3197",Apartment / Unit / Flat,new,1868.0,"(-38.0639144, 145.1434954)",-38.0639144,145.1434954
2,2,2,2,2,2,2,2,2,2,2,2,2,16089977,420.0,3,1,1,$420,"8 Stoneman Turn, Caroline Springs VIC 3023",House,new,1820.0,"(-37.7442316, 144.7459806)",-37.7442316,144.7459806
3,3,3,3,3,3,3,3,3,3,3,3,3,16089972,640.0,1,1,1,$640 per week,"1510/1 Freshwater Place, Southbank VIC 3006",Apartment / Unit / Flat,new,2781.0,"(-37.8221111, 144.962312)",-37.8221111,144.962312
4,4,4,4,4,4,4,4,4,4,4,4,4,16089969,550.0,4,2,2,$550 PER WEEK,"6 Plenty Drive, Warragul VIC 3820",House,new,2390.0,"(-38.1451685, 145.91044)",-38.1451685,145.91044
5,5,5,5,5,5,5,5,5,5,5,5,5,16089960,360.0,1,1,1,$360,"10X/154 Elgar Road, Box Hill South VIC 3128",Apartment / Unit / Flat,new,1564.0,"(-37.8282748, 145.1128198)",-37.8282748,145.1128198
6,6,6,6,6,6,6,6,6,6,6,6,6,16089942,460.0,3,2,1,$460 PER WEEK,"5 Bishopthorpe Road, Williams Landing VIC 3027",House,new,1999.0,"(-37.8642585, 144.7517114)",-37.8642585,144.7517114
7,7,7,7,7,7,7,7,7,7,7,7,7,12805722,460.0,2,2,1,$460.00 per week,"9 Johanna Path, Lyndhurst VIC 3975",House,recentlyUpdated,1993.0,"(-38.0781807, 145.256341)",-38.0781807,145.256341
8,8,8,8,8,8,8,8,8,8,8,8,8,16089938,630.0,4,2,2,$630 weekly,"90 Shepherd Rd, Glen Waverley VIC 3150",House,new,2738.0,"(-37.8845791, 145.1881353)",-37.8845791,145.1881353
9,9,9,9,9,9,9,9,9,9,9,9,9,16089933,700.0,3,3,2,"$700pw/$3,042pcm","4/21 Rosebank Avenue, Ringwood North VIC 3134",Townhouse,new,3042.0,"(-37.7979406, 145.2303354)",-37.7979406,145.2303354
10,10,10,10,10,10,10,10,10,10,10,10,10,15478015,700.0,2,1,0,$700 per week,"15 Dally Street, Clifton Hill VIC 3068",House,recentlyUpdated,3042.0,"(-37.7922251, 144.9986679)",-37.7922251,144.9986679
11,11,11,11,11,11,11,11,11,11,11,11,11,16089930,500.0,4,2,2,$500,"20 Knightsford Avenue, Clyde VIC 3978",House,new,2173.0,"(-38.123561, 145.3418052)",-38.123561,145.3418052
12,12,12,12,12,12,12,12,12,12,12,12,12,16089923,360.0,3,1,0,$360 weekly,"2 Vega Court, Newcomb VIC 3219",House,new,1564.0,"(-38.1650238, 144.3986058)",-38.1650238,144.3986058
13,13,13,13,13,13,13,13,13,13,13,13,13,16089922,490.0,2,1,1,$490 weekly,"304/2-6 Duckett Street, Brunswick VIC 3056",Apartment / Unit / Flat,new,2129.0,"(-37.7632868, 144.9610279)",-37.7632868,144.9610279
14,14,14,14,14,14,14,14,14,14,14,14,14,16089919,500.0,2,2,1,"$500pw/$2,172pcm","2/21 Rosebank Avenue, Ringwood North VIC 3134",Townhouse,new,2172.0,"(-37.7979406, 145.2303354)",-37.7979406,145.2303354
15,15,15,15,15,15,15,15,15,15,15,15,15,16089911,360.0,3,1,2,$360 Per Week,"5 Roxburgh Road, Yallourn North VIC 3825",House,new,1560.0,"(-38.1586556, 146.3649791)",-38.1586556,146.3649791
16,16,16,16,16,16,16,16,16,16,16,16,16,16089894,780.0,4,3,2,"$780pw/$3,390pcm","3/21 Rosebank Avenue, Ringwood North VIC 3134",Townhouse,new,3390.0,"(-37.7979406, 145.2303354)",-37.7979406,145.2303354
17,17,17,17,17,17,17,17,17,17,17,17,17,16089889,450.0,1,1,1,$450,"113/392 St Georges Road, Fitzroy North VIC 3068",Apartment / Unit / Flat,new,1955.0,"(-37.7782874, 144.9883669)",-37.7782874,144.9883669
18,18,18,18,18,18,18,18,18,18,18,18,18,16089886,495.0,4,2,2,$495,"8 Cropping Street, Clyde North VIC 3978",House,new,2129.0,"(-38.1041518, 145.3854168)",-38.1041518,145.3854168
19,19,19,19,19,19,19,19,19,19,19,19,19,16089883,500.0,3,1,3,$500 weekly,"13 Longbrae Ave, Forest Hill VIC 3131",House,new,2173.0,"(-37.840875, 145.1814181)",-37.840875,145.1814181
20,20,20,20,20,20,20,20,20,20,20,20,20,15900569,865.0,4,3,2,$865,"7b Bevis Street, Bentleigh East VIC 3165",House,recentlyUpdated,3759.0,"(-37.9183749, 145.0531851)",-37.9183749,145.0531851
21,21,21,21,21,21,21,21,21,21,21,21,21,16089871,450.0,4,2,3,$450 weekly,"45 Ruthven Street, Sunbury VIC 3429",House,new,1955.0,"(-37.5713898, 144.7258407)",-37.5713898,144.7258407
22,22,22,22,22,22,22,22,22,22,22,22,22,16089864,550.0,2,1,1,$550,"17/384 Bluff Road, Sandringham VIC 3191",House,new,2390.0,"(-37.95919, 145.0195582)",-37.95919,145.0195582
23,23,23,23,23,23,23,23,23,23,23,23,23,16089863,280.0,4,1,0,$280.00,"190 LAKE RD, Stawell VIC 3380",House,new,1216.0,"(-37.0563307, 142.7664765)",-37.0563307,142.7664765
24,24,24,24,24,24,24,24,24,24,24,24,24,16089860,440.0,2,2,2,$440 per week,"3/84 Winfield Road, Balwyn North VIC 3104",Apartment / Unit / Flat,new,1912.0,"(-37.7903879, 145.1029675)",-37.7903879,145.1029675
25,25,25,25,25,25,25,25,25,25,25,25,25,16089857,465.0,1,1,1,$465,"503/75 Wellington Street, Collingwood VIC 3066",Apartment / Unit / Flat,new,2000.0,"(-37.8023321, 144.9868182)",-37.8023321,144.9868182
26,26,26,26,26,26,26,26,26,26,26,26,26,16089852,780.0,4,3,2,"$780pw/$3,390pcm","1/21 Rosebank Avenue, Ringwood North VIC 3134",Townhouse,new,3390.0,"(-37.7979406, 145.2303354)",-37.7979406,145.2303354
27,27,27,27,27,27,27,27,27,27,27,27,27,16089846,435.0,2,1,2,$435.00 per week,"11/316 Skye Road, Frankston VIC 3199",Apartment / Unit / Flat,new,1890.0,"(-38.1325236, 145.1404925)",-38.1325236,145.1404925
28,28,28,28,28,28,28,28,28,28,28,28,28,16089842,525.0,2,1,0,$525 Per Week,"1307/250 City Rd, Southbank VIC 3006",House,new,2100.0,"(-37.823816, 144.9627077)",-37.823816,144.9627077
29,29,29,29,29,29,29,29,29,29,29,29,29,16089841,330.0,3,1,1,$330,"1/139 Anderson Road, Albion VIC 3020",Apartment / Unit / Flat,new,1430.0,"(-37.7824392, 144.8277488)",-37.7824392,144.8277488
30,30,30,30,30,30,30,30,30,30,30,30,30,16089817,525.0,3,1,1,$525.00,"1/10 Elm Grove, McKinnon VIC 3204",Apartment / Unit / Flat,new,2281.0,"(-37.9103872, 145.0364586)",-37.9103872,145.0364586
31,31,31,31,31,31,31,31,31,31,31,31,31,16089812,470.0,3,2,2,$470,"21 Wattleview Road, Roxburgh Park VIC 3064",House,new,2037.0,"(-37.6168888, 144.9266411)",-37.6168888,144.9266411
32,32,32,32,32,32,32,32,32,32,32,32,32,16089810,460.0,3,2,2,$460 pw,"2/17 Nelson Road, Trafalgar VIC 3824",Townhouse,new,1999.0,"(-38.2035319, 146.1556274)",-38.2035319,146.1556274
33,33,33,33,33,33,33,33,33,33,33,33,33,16089809,600.0,2,2,1,$600 weekly,"705S/883 Collins Street, Docklands VIC 3008",Apartment / Unit / Flat,new,2607.0,"(-37.8211886, 144.943805)",-37.8211886,144.943805
34,34,34,34,34,34,34,34,34,34,34,34,34,16089784,480.0,4,1,2,$480 Per Week,"9 Western Way, Narre Warren VIC 3805",House,new,2086.0,"(-38.021238, 145.2973676)",-38.021238,145.2973676
35,35,35,35,35,35,35,35,35,35,35,35,35,16089782,650.0,4,2,2,$650 per calendar week,"10 Seattle Street, Balwyn North VIC 3104",House,new,2824.0,"(-37.7829444, 145.0881751)",-37.7829444,145.0881751
36,36,36,36,36,36,36,36,36,36,36,36,36,16089778,450.0,2,1,2,$450 per week,"10/163 Queen Street, Altona VIC 3018",Apartment / Unit / Flat,new,1955.0,"(-37.8711739, 144.819997)",-37.8711739,144.819997
37,37,37,37,37,37,37,37,37,37,37,37,37,16089775,360.0,3,1,2,$360 per week,"1 Clayton Park Drive, Canadian VIC 3350",House,new,1560.0,"(-37.5779376, 143.8803464)",-37.5779376,143.8803464
38,38,38,38,38,38,38,38,38,38,38,38,38,16089765,600.0,2,2,1,$600 pw,"302/2 Snedden Drive, Glen Waverley VIC 3150",Apartment / Unit / Flat,new,2607.0,"(-37.8779078, 145.1642872)",-37.8779078,145.1642872
39,39,39,39,39,39,39,39,39,39,39,39,39,14955995,430.0,3,1,1,$430,"64 Percy Street, Fawkner VIC 3060",House,recentlyUpdated,1865.0,"(-37.7082177, 144.9749824)",-37.7082177,144.9749824
40,40,40,40,40,40,40,40,40,40,40,40,40,16089755,315.0,3,1,0,$315,"58 Monash Street, Melton South VIC 3338",House,new,1369.0,"(-37.7126282, 144.5760059)",-37.7126282,144.5760059
41,41,41,41,41,41,41,41,41,41,41,41,41,16089752,450.0,2,1,2,$450,"38 Erasmus Street, Surrey Hills VIC 3127",House,new,1955.0,"(-37.8302693, 145.1100937)",-37.8302693,145.1100937
42,42,42,42,42,42,42,42,42,42,42,42,42,16089749,500.0,4,2,2,$500,"20 Pemberton Street, Mount Duneed VIC 3217",House,new,2173.0,"(-38.2306986, 144.3258742)",-38.2306986,144.3258742
43,43,43,43,43,43,43,43,43,43,43,43,43,15663033,350.0,3,2,0,$350,"55 WIRRAWAY STREET, Moe VIC 3825",House,recentlyUpdated,1516.0,"(-38.1795138, 146.2543556)",-38.1795138,146.2543556
44,44,44,44,44,44,44,44,44,44,44,44,44,16089744,350.0,3,2,0,$350,"55 WIRRAWAY STREET, Moe VIC 3825",House,new,1516.0,"(-38.1795138, 146.2543556)",-38.1795138,146.2543556
45,45,45,45,45,45,45,45,45,45,45,45,45,16089739,750.0,2,1,1,$750 per week,"1701/18 Claremont Street, South Yarra VIC 3141",Apartment / Unit / Flat,new,3250.0,"(-37.8377585, 144.9938493)",-37.8377585,144.9938493
46,46,46,46,46,46,46,46,46,46,46,46,46,16089738,390.0,2,1,1,$390.00,"12/58 Edgar St North, Glen Iris VIC 3146",Apartment / Unit / Flat,new,1695.0,"(-37.8509716, 145.0461654)",-37.8509716,145.0461654
47,47,47,47,47,47,47,47,47,47,47,47,47,16089734,410.0,2,1,1,$410.00,"9/46 Orrong Crescent, Caulfield North VIC 3161",Apartment / Unit / Flat,new,1412.0,"(-37.8684944, 145.017581)",-37.8684944,145.017581
48,48,48,48,48,48,48,48,48,48,48,48,48,16089732,440.0,3,1,2,$440.00,"11 Braeside Walk, Caroline Springs VIC 3023",House,new,1912.0,"(-37.7172153, 144.737677)",-37.7172153,144.737677
49,49,49,49,49,49,49,49,49,49,49,49,49,16089730,470.0,2,1,1,$470.00,"3/5 Dumbarton Street, Reservoir VIC 3073",Apartment / Unit / Flat,new,2042.0,"(-37.7013289, 145.0231488)",-37.7013289,145.0231488
50,50,50,50,50,50,50,50,50,50,50,50,50,16089729,650.0,2,1,0,$650 per week,"2401/380 Little Lonsdale Street, Melbourne VIC 3000",Apartment / Unit / Flat,new,2824.0,"(-37.8122724, 144.9581821)",-37.8122724,144.9581821
51,51,51,51,51,51,51,51,51,51,51,51,51,16089728,670.0,2,1,1,$670 Per Week,"902/81 South Wharf Drive, Docklands VIC 3008",Apartment / Unit / Flat,new,2911.0,"(-37.8218804, 144.93495)",-37.8218804,144.93495
52,52,52,52,52,52,52,52,52,52,52,52,52,16089721,430.0,3,2,2,$430 Per Week,"12 Blackwood Drive, Delahey VIC 3037",House,new,1868.0,Requires Manual Inspection,R,e
53,53,53,53,53,53,53,53,53,53,53,53,53,15526167,360.0,3,2,0,$360,"168 Station Road, Melton VIC 3337",House,recentlyUpdated,1564.0,"(-37.6846361, 144.5780518)",-37.6846361,144.5780518
54,54,54,54,54,54,54,54,54,54,54,54,54,16089712,410.0,2,1,1,$410 per week,"2/34 Belfast Street, Newtown VIC 3220",Apartment / Unit / Flat,new,1640.0,"(-38.155565, 144.3387934)",-38.155565,144.3387934
55,55,55,55,55,55,55,55,55,55,55,55,55,16089711,500.0,4,2,2,$500,"23 Messina Crescent, Point Cook VIC 3030",House,new,2173.0,"(-37.8868898, 144.7401556)",-37.8868898,144.7401556
56,56,56,56,56,56,56,56,56,56,56,56,56,16089710,700.0,3,1,0,$700.00,"3 Newry Street, Windsor VIC 3181",House,new,3042.0,"(-37.8545593, 145.000464)",-37.8545593,145.000464
57,57,57,57,57,57,57,57,57,57,57,57,57,16089707,495.0,3,2,2,$495 per week,"21A Victoria Avenue, Mitcham VIC 3132",House,new,2151.0,"(-37.8144905, 145.1896743)",-37.8144905,145.1896743
58,58,58,58,58,58,58,58,58,58,58,58,58,16089702,440.0,5,2,5,$440.00 pw,"3 Lind Drive, Lake Tyers Beach VIC 3909",House,new,1912.0,"(-37.8612596, 148.0736341)",-37.8612596,148.0736341
59,59,59,59,59,59,59,59,59,59,59,59,59,16089700,390.0,1,1,1,$390 pw,"205/16-18 Grey Street, St Kilda VIC 3182",Apartment / Unit / Flat,new,1695.0,"(-37.8636969, 144.9811847)",-37.8636969,144.9811847
60,60,60,60,60,60,60,60,60,60,60,60,60,16089698,1300.0,5,3,2,"$1,300.00","24 Spencer Rd, Camberwell VIC 3124",House,new,8473.0,"(-37.83027765, 145.0710574276878)",-37.83027765,145.0710574276878
61,61,61,61,61,61,61,61,61,61,61,61,61,16089697,1300.0,5,3,2,"$1,300.00","24 Spencer Rd, Camberwell VIC 3124",House,new,8473.0,"(-37.83027765, 145.0710574276878)",-37.83027765,145.0710574276878
62,62,62,62,62,62,62,62,62,62,62,62,62,16089696,850.0,4,2,2,$850.00,"73A Castlewood Street, Bentleigh East VIC 3165",Townhouse,new,3693.0,"(-37.9158622, 145.0672884)",-37.9158622,145.0672884
63,63,63,63,63,63,63,63,63,63,63,63,63,16089692,300.0,1,1,1,$300.00,"8/2 Murray Street, Thornbury VIC 3071",Apartment / Unit / Flat,new,1304.0,"(-37.7545147, 144.9964438)",-37.7545147,144.9964438
64,64,64,64,64,64,64,64,64,64,64,64,64,16089689,550.0,2,2,0,$550 per week,"1605/8 Sutherland Street, Melbourne VIC 3000",Apartment / Unit / Flat,new,2390.0,"(-37.8110719, 144.960791)",-37.8110719,144.960791
65,65,65,65,65,65,65,65,65,65,65,65,65,16089685,420.0,3,1,2,$420.00 per week,"47 Olney Avenue, Thomson VIC 3219",House,new,1825.0,"(-38.1726586, 144.381624)",-38.1726586,144.381624
66,66,66,66,66,66,66,66,66,66,66,66,66,16089684,650.0,3,3,2,$650 Per Week,"23 Piccolo Circuit, Williamstown VIC 3016",House,new,2817.0,"(-37.854078, 144.8728446)",-37.854078,144.8728446
67,67,67,67,67,67,67,67,67,67,67,67,67,16089683,350.0,1,1,0,$350.00,"210/20 Shamrock Street, Abbotsford VIC 3067",Apartment / Unit / Flat,new,1521.0,"(-37.8100884, 145.0064853)",-37.8100884,145.0064853
68,68,68,68,68,68,68,68,68,68,68,68,68,15108007,410.0,3,2,2,$410 per week/ $1777 per month,"37 Adelong Way, Bacchus Marsh VIC 3340",Townhouse,recentlyUpdated,1777.0,"(-37.678898, 144.4215205)",-37.678898,144.4215205
69,69,69,69,69,69,69,69,69,69,69,69,69,16089675,480.0,3,1,2,$480.00,"25 Lyell Street, Gisborne VIC 3437",House,new,2086.0,"(-37.4864799, 144.5867992)",-37.4864799,144.5867992
70,70,70,70,70,70,70,70,70,70,70,70,70,16089674,360.0,4,2,2,$360,"59 Carina Drive, Melton VIC 3337",House,new,1564.0,"(-37.6829709, 144.5710017)",-37.6829709,144.5710017
71,71,71,71,71,71,71,71,71,71,71,71,71,16089667,420.0,3,2,2,$420,"4 Pantanal Road, Tarneit VIC 3029",House,new,1825.0,"(-37.8336552, 144.655237)",-37.8336552,144.655237
72,72,72,72,72,72,72,72,72,72,72,72,72,16089665,400.0,2,1,2,$400,"1 /47 Oakwood Avenue, Dandenong North VIC 3175",Apartment / Unit / Flat,new,1738.0,"(-37.9639156, 145.2020936)",-37.9639156,145.2020936
73,73,73,73,73,73,73,73,73,73,73,73,73,16089661,650.0,3,2,2,$650.00,"3/16 Arundel Street, Croydon VIC 3136",Townhouse,new,2824.0,"(-37.7852298, 145.2707908)",-37.7852298,145.2707908
74,74,74,74,74,74,74,74,74,74,74,74,74,16089655,300.0,2,1,2,$300.00 per week,"5 Hurley St, Ballarat North VIC 3350",House,new,1300.0,"(-37.5419803, 143.8654236)",-37.5419803,143.8654236
75,75,75,75,75,75,75,75,75,75,75,75,75,16089654,620.0,3,1,1,$620.00,"5 Monteath Avenue, Hawthorn East VIC 3123",House,new,2694.0,"(-37.8285287, 145.0546772)",-37.8285287,145.0546772
76,76,76,76,76,76,76,76,76,76,76,76,76,16089652,450.0,2,2,1,$450,"115/1 Frank Street, Glen Waverley VIC 3150",House,new,1955.0,"(-37.8878641, 145.1642438)",-37.8878641,145.1642438
77,77,77,77,77,77,77,77,77,77,77,77,77,16089646,370.0,3,1,2,$370 per week,"5 McDonald Drive, Winchelsea VIC 3241",House,new,1608.0,"(-38.2405843, 143.9881743)",-38.2405843,143.9881743
78,78,78,78,78,78,78,78,78,78,78,78,78,16089645,650.0,3,2,2,$650.00,"1/16 Arundel Street, Croydon VIC 3136",Townhouse,new,2824.0,"(-37.7852298, 145.2707908)",-37.7852298,145.2707908
79,79,79,79,79,79,79,79,79,79,79,79,79,16089644,390.0,2,1,1,$390 weekly,"7/11 Truganini Road, Carnegie VIC 3163",Apartment / Unit / Flat,new,1695.0,"(-37.8922846, 145.054233)",-37.8922846,145.054233
80,80,80,80,80,80,80,80,80,80,80,80,80,16089643,495.0,4,2,2,$495 per week,"23 Pippin Court, Harcourt VIC 3453",House,new,2145.0,"(-36.9954213, 144.2669513)",-36.9954213,144.2669513
81,81,81,81,81,81,81,81,81,81,81,81,81,16089637,420.0,2,1,2,$420 per week,"4/11 Davis Street, Kew VIC 3101",Apartment / Unit / Flat,new,1825.0,"(-37.809674, 145.0467431)",-37.809674,145.0467431
82,82,82,82,82,82,82,82,82,82,82,82,82,16089636,440.0,4,2,2,$440.00 per week,"59 Middle Park Drive, Sanctuary Lakes VIC 3030",House,new,1912.0,"(-37.8992522, 144.7544342)",-37.8992522,144.7544342
83,83,83,83,83,83,83,83,83,83,83,83,83,16089630,530.0,3,1,1,$530 per week,"7 Koroit Street, Warrnambool VIC 3280",House,new,2296.0,"(-38.3845705, 142.4858371)",-38.3845705,142.4858371
84,84,84,84,84,84,84,84,84,84,84,84,84,16089624,495.0,3,1,0,$495 per week,"1/67 Surrey Road East, Croydon VIC 3136",House,new,2151.0,"(-37.790554, 145.291658)",-37.790554,145.291658
85,85,85,85,85,85,85,85,85,85,85,85,85,14682565,400.0,1,1,1,$400 per week,"414/17 Lynch Street, Hawthorn VIC 3122",Apartment / Unit / Flat,recentlyUpdated,1738.0,"(-37.8214914, 145.032071)",-37.8214914,145.032071
86,86,86,86,86,86,86,86,86,86,86,86,86,16089612,420.0,3,1,2,$420,"6 Burton Court, Bayswater VIC 3153",House,new,1825.0,"(-37.8465867, 145.2717085)",-37.8465867,145.2717085
87,87,87,87,87,87,87,87,87,87,87,87,87,16089611,530.0,3,1,2,$530 weekly,"17 Willow St, Box Hill North VIC 3129",House,new,2303.0,"(-37.8086182, 145.1195312)",-37.8086182,145.1195312
88,88,88,88,88,88,88,88,88,88,88,88,88,16089610,420.0,4,2,2,$420.00,"28 Creekstone Drive, Alfredton VIC 3350",House,new,1820.0,"(-37.5574376, 143.7922621)",-37.5574376,143.7922621
89,89,89,89,89,89,89,89,89,89,89,89,89,16089605,730.0,4,2,2,$730,"17 Holly Green Road, Wheelers Hill VIC 3150",House,new,3172.0,Requires Manual Inspection,R,e
90,90,90,90,90,90,90,90,90,90,90,90,90,16089607,290.0,2,1,0,$290 Per Week,"113 Avoca Crescent, Maryborough VIC 3465",House,new,1160.0,"(-37.0563065, 143.7336469)",-37.0563065,143.7336469
91,91,91,91,91,91,91,91,91,91,91,91,91,16089604,435.0,2,1,2,$435 / wk,"9/2 York Street, Bonbeach VIC 3196",Apartment / Unit / Flat,new,1890.0,"(-38.0616156, 145.121004)",-38.0616156,145.121004
92,92,92,92,92,92,92,92,92,92,92,92,92,16089601,600.0,2,2,1,$600 Per week,"203/20 Reeves Street, Carlton VIC 3053",Apartment / Unit / Flat,new,2607.0,"(-37.7933438, 144.9705649)",-37.7933438,144.9705649
93,93,93,93,93,93,93,93,93,93,93,93,93,16089600,320.0,1,1,1,$320pw$1390pcm,"4/557 Glenferrie Road, Hawthorn VIC 3122",Apartment / Unit / Flat,new,1390.0,"(-37.8241335, 145.0350713)",-37.8241335,145.0350713
94,94,94,94,94,94,94,94,94,94,94,94,94,16089599,550.0,3,1,2,$550,"41 Cootamundra Drive, Wheelers Hill VIC 3150",House,new,2390.0,"(-37.9087209, 145.1715481)",-37.9087209,145.1715481
95,95,95,95,95,95,95,95,95,95,95,95,95,16089597,480.0,4,2,2,$480.00 per week,"45 Kirkstone Road, Point Cook VIC 3030",House,new,2086.0,"(-37.8959192, 144.7509826)",-37.8959192,144.7509826
96,96,96,96,96,96,96,96,96,96,96,96,96,15809807,220.0,1,1,1,$220,"8/305 Ogilvie Avenue, Echuca VIC 3564",Studio,recentlyUpdated,880.0,"(-36.1405247, 144.7363219)",-36.1405247,144.7363219
97,97,97,97,97,97,97,97,97,97,97,97,97,16089581,300.0,2,1,1,$300 per week,"5/113 Crookston Road, Reservoir VIC 3073",Apartment / Unit / Flat,new,1303.0,"(-37.709044, 145.0109115)",-37.709044,145.0109115
98,98,98,98,98,98,98,98,98,98,98,98,98,16089567,400.0,4,2,2,$400 per Week,"4 Forestmill Way, Strathtulloh VIC 3338",House,new,1738.0,"(-37.7232881, 144.5904623)",-37.7232881,144.5904623
99,99,99,99,99,99,99,99,99,99,99,99,99,16089565,400.0,3,1,1,$400 weekly,"31 Vale St, Moe VIC 3825",House,new,1733.0,"(-38.1814779, 146.2616284)",-38.1814779,146.2616284
100,100,100,100,100,100,100,100,100,100,100,100,100,16089561,625.0,3,2,2,$625.00,"19/114 Warren Road, Mordialloc VIC 3195",Townhouse,new,2716.0,"(-37.9909923, 145.0932496)",-37.9909923,145.0932496
101,101,101,101,101,101,101,101,101,101,101,101,101,16089558,775.0,3,2,1,$775 per week,"51 Duke Street, Richmond VIC 3121",House,new,3368.0,"(-37.8221639, 145.0040768)",-37.8221639,145.0040768
102,102,102,102,102,102,102,102,102,102,102,102,102,14353719,450.0,3,1,2,$450.00 per week,"23 Toohey Court, Bellfield VIC 3081",House,recentlyUpdated,1955.0,"(-37.7510585, 145.038721)",-37.7510585,145.038721
103,103,103,103,103,103,103,103,103,103,103,103,103,16089553,350.0,3,1,1,$350,"4/61 Pioneer Street, Foster VIC 3960",Apartment / Unit / Flat,new,1516.0,"(-38.6548933, 146.2004745)",-38.6548933,146.2004745
104,104,104,104,104,104,104,104,104,104,104,104,104,16089546,400.0,4,2,2,$400.00,"98 Chapman Drive, Wyndham Vale VIC 3024",House,new,1738.0,"(-37.8773622, 144.6265554)",-37.8773622,144.6265554
105,105,105,105,105,105,105,105,105,105,105,105,105,16089542,850.0,3,2,2,$850.00,"428 Sturt Street, Ballarat Central VIC 3350",House,new,3684.0,"(-37.5614815, 143.8547925)",-37.5614815,143.8547925
106,106,106,106,106,106,106,106,106,106,106,106,106,16089538,340.0,1,1,1,$340 per week,"9/82-92 Gheringhap Street, Geelong VIC 3220",Townhouse,new,1477.0,"(-38.1508797, 144.3558587)",-38.1508797,144.3558587
107,107,107,107,107,107,107,107,107,107,107,107,107,16089534,750.0,3,2,2,$750.00,"2/1230 Burke Road, Kew East VIC 3102",House,new,3259.0,"(-37.8007129, 145.0625352)",-37.8007129,145.0625352
108,108,108,108,108,108,108,108,108,108,108,108,108,16089533,450.0,4,2,2,$450,"4 Ceremony Drive, Tarneit VIC 3029",House,new,1955.0,"(-37.8274315, 144.6695592)",-37.8274315,144.6695592
109,109,109,109,109,109,109,109,109,109,109,109,109,16089531,450.0,4,2,2,$450,"45 Ionica loop, Truganina VIC 3029",House,new,1955.0,"(-37.749822, 144.6748111)",-37.749822,144.6748111
110,110,110,110,110,110,110,110,110,110,110,110,110,16089530,2500.0,4,3,2,"$2,500","14/67 Elizabeth Street, Malvern VIC 3144",Apartment / Unit / Flat,new,10863.0,"(-37.8488166, 145.0364272)",-37.8488166,145.0364272
111,111,111,111,111,111,111,111,111,111,111,111,111,16089525,500.0,4,2,2,$500.00 per week,"445 Napier Street, White Hills VIC 3550",House,new,2000.0,"(-36.7412092, 144.2972758)",-36.7412092,144.2972758
112,112,112,112,112,112,112,112,112,112,112,112,112,16089524,2000.0,3,3,3,"$2,000.00","299 Queen Street, Melbourne VIC 3000",Apartment / Unit / Flat,new,8667.0,"(-37.8113548, 144.9588337)",-37.8113548,144.9588337
113,113,113,113,113,113,113,113,113,113,113,113,113,16089523,630.0,2,2,1,$630.00,"84 Victoria Street, Fitzroy VIC 3065",House,new,2738.0,"(-37.799143400000005, 144.97760187622492)",-37.799143400000005,144.97760187622492
114,114,114,114,114,114,114,114,114,114,114,114,114,16089515,350.0,4,1,2,$350,"8 Simmie Street, Echuca VIC 3564",House,new,1400.0,"(-36.1454043, 144.7478569)",-36.1454043,144.7478569
115,115,115,115,115,115,115,115,115,115,115,115,115,16089514,600.0,2,1,1,$600,"4/619B Nepean Highway, Carrum VIC 3197",House,new,2607.0,"(-38.0751927, 145.12103584926206)",-38.0751927,145.12103584926206
116,116,116,116,116,116,116,116,116,116,116,116,116,16089504,380.0,3,2,1,$380 Per Week,"3/67-69 Pecks Road, Sydenham VIC 3037",Apartment / Unit / Flat,new,1651.0,"(-37.7075805, 144.7676895)",-37.7075805,144.7676895
117,117,117,117,117,117,117,117,117,117,117,117,117,16089500,400.0,2,1,2,$400,"61 Saturn Parade, Venus Bay VIC 3956",House,new,1600.0,"(-38.7056322, 145.8229612)",-38.7056322,145.8229612
118,118,118,118,118,118,118,118,118,118,118,118,118,15860293,420.0,1,1,0,$420 weekly,"1303/89 Gladstone St, South Melbourne VIC 3205",Apartment / Unit / Flat,leased,1825.0,"(-37.8301288, 144.9500220120891)",-37.8301288,144.9500220120891
119,119,119,119,119,119,119,119,119,119,119,119,119,16089499,450.0,3,1,1,$450 PW / $1955 PCM,"30 Elsey Road, Reservoir VIC 3073",House,new,1955.0,"(-37.704913, 145.0120243)",-37.704913,145.0120243
120,120,120,120,120,120,120,120,120,120,120,120,120,16089493,470.0,1,1,1,$470 per week,"605/70 Stanley Street, Collingwood VIC 3066",Apartment / Unit / Flat,new,2042.0,"(-37.8021481, 144.9850819)",-37.8021481,144.9850819
121,121,121,121,121,121,121,121,121,121,121,121,121,16089481,370.0,3,1,2,$370 weekly,"9 Baxter St, Bendigo VIC 3550",House,new,1607.0,"(-36.7568241, 144.2890694)",-36.7568241,144.2890694
122,122,122,122,122,122,122,122,122,122,122,122,122,16089480,475.0,1,1,1,$475 Per Week,"804/7 Evergreen Mews, Armadale VIC 3143",Apartment / Unit / Flat,new,2064.0,"(-37.8518168, 145.0129015)",-37.8518168,145.0129015
123,123,123,123,123,123,123,123,123,123,123,123,123,8199821,490.0,2,1,1,$490 per week,"7/123-129 Anderson Street, Yarraville VIC 3013",Townhouse,recentlyUpdated,2129.0,"(-37.815922, 144.884173)",-37.815922,144.884173
124,124,124,124,124,124,124,124,124,124,124,124,124,16089463,410.0,3,1,2,$410,"128 Thomas Mitchell Drive, Wodonga VIC 3690",House,new,1640.0,"(-36.1248115, 146.8885235)",-36.1248115,146.8885235
125,125,125,125,125,125,125,125,125,125,125,125,125,16089462,850.0,3,2,2,$850.00pw / $3694.00pcm,"2202/40 Hall Street, Moonee Ponds VIC 3039",Apartment / Unit / Flat,new,3694.0,"(-37.7658871, 144.9214363)",-37.7658871,144.9214363
126,126,126,126,126,126,126,126,126,126,126,126,126,16089458,400.0,4,2,2,$400 weekly,"29 Ragusa Terrace, Mernda VIC 3754",House,new,1738.0,"(-37.603974, 145.0715946)",-37.603974,145.0715946
127,127,127,127,127,127,127,127,127,127,127,127,127,16089456,400.0,3,1,1,$400 Per week,West Footscray VIC 3012,House,new,1738.0,"(-37.8005584, 144.8710808)",-37.8005584,144.8710808
128,128,128,128,128,128,128,128,128,128,128,128,128,16089454,600.0,4,1,1,$600 per week,"81A Whitehorse Road, Balwyn VIC 3103",Apartment / Unit / Flat,new,2607.0,"(-37.8128179, 145.0812049)",-37.8128179,145.0812049
129,129,129,129,129,129,129,129,129,129,129,129,129,16089453,430.0,4,2,2,$430.00 per week,"40 Honour Avenue, Winter Valley VIC 3358",House,new,1868.0,"(-37.568139, 143.7878286)",-37.568139,143.7878286
130,130,130,130,130,130,130,130,130,130,130,130,130,16089447,420.0,4,1,1,$420 per week,"103 Duff Street, Cranbourne VIC 3977",House,new,1825.0,"(-38.1023709, 145.2668539)",-38.1023709,145.2668539
131,131,131,131,131,131,131,131,131,131,131,131,131,16089444,660.0,2,2,1,$660.00,"5/1 Latrobe Street, Cheltenham VIC 3192",Townhouse,new,2868.0,"(-37.9736038, 145.0551729)",-37.9736038,145.0551729
132,132,132,132,132,132,132,132,132,132,132,132,132,16089443,400.0,2,1,1,$400.00,"9/88 Richmond Terrace, Richmond VIC 3121",Apartment / Unit / Flat,new,1738.0,"(-37.8216663, 144.9894349)",-37.8216663,144.9894349
133,133,133,133,133,133,133,133,133,133,133,133,133,16089439,520.0,4,2,2,$520,"12 Great Banjo Street, Clyde North VIC 3978",House,new,2260.0,"(-38.1076723, 145.3392335)",-38.1076723,145.3392335
134,134,134,134,134,134,134,134,134,134,134,134,134,16089440,750.0,3,2,2,$750,"4/16-18 Shaftesbury Avenue, Malvern VIC 3144",Townhouse,new,3259.0,"(-37.8532526, 145.0386939)",-37.8532526,145.0386939
135,135,135,135,135,135,135,135,135,135,135,135,135,14781252,330.0,2,1,1,$330,"6/9-11 Orchard Street, Glen Waverley VIC 3150",Apartment / Unit / Flat,recentlyUpdated,1434.0,"(-37.8684079, 145.15347)",-37.8684079,145.15347
136,136,136,136,136,136,136,136,136,136,136,136,136,16089438,300.0,2,1,1,$300 per week,"14/5 Lewis Street, Kingsville VIC 3012",Apartment / Unit / Flat,new,1304.0,"(-37.8095932, 144.8736299)",-37.8095932,144.8736299
137,137,137,137,137,137,137,137,137,137,137,137,137,16089436,580.0,3,1,2,$580 Per Week,"2/1 Cohuna Street, Brunswick West VIC 3055",Townhouse,new,2521.0,"(-37.7745943, 144.9405384)",-37.7745943,144.9405384
138,138,138,138,138,138,138,138,138,138,138,138,138,16089433,400.0,1,1,1,$400 per week,"303/79-81 Asling Street, Brighton VIC 3186",Apartment / Unit / Flat,new,1738.0,"(-37.9052612, 145.0016249)",-37.9052612,145.0016249
139,139,139,139,139,139,139,139,139,139,139,139,139,16089432,540.0,2,2,2,$540 weekly,"302/27-33 James Street, Windsor VIC 3181",Apartment / Unit / Flat,new,2346.0,"(-37.8549601, 144.9945155)",-37.8549601,144.9945155
140,140,140,140,140,140,140,140,140,140,140,140,140,16089431,300.0,1,1,1,$300 weekly,"18/41 Northcote Ave, Caulfield North VIC 3161",Apartment / Unit / Flat,new,1304.0,"(-37.8781478, 145.0272893)",-37.8781478,145.0272893
141,141,141,141,141,141,141,141,141,141,141,141,141,16089428,1200.0,4,2,2,"$1,200.00","59 York Aveune, Ivanhoe East VIC 3079",House,new,5214.0,Requires Manual Inspection,R,e
142,142,142,142,142,142,142,142,142,142,142,142,142,16089425,700.0,5,3,2,$700 per week,"8 Licola Street, Vermont South VIC 3133",House,new,3042.0,"(-37.8613803, 145.1790891)",-37.8613803,145.1790891
143,143,143,143,143,143,143,143,143,143,143,143,143,16089422,370.0,1,1,0,$370 per week,"106/455 Elizabeth Street, Melbourne VIC 3000",Apartment / Unit / Flat,new,1608.0,"(-37.8103786, 144.9613079)",-37.8103786,144.9613079
144,144,144,144,144,144,144,144,144,144,144,144,144,16089421,510.0,3,2,2,$510,"6 Timms Street, Narre Warren South VIC 3805",House,new,2216.0,"(-38.0590779, 145.2934477)",-38.0590779,145.2934477
145,145,145,145,145,145,145,145,145,145,145,145,145,16089419,325.0,1,1,0,$325.00,"402/112 A'Beckett Street, Melbourne VIC 3000",Apartment / Unit / Flat,new,1409.0,"(-37.8096114, 144.9595749)",-37.8096114,144.9595749
146,146,146,146,146,146,146,146,146,146,146,146,146,15034289,380.0,1,1,1,$380,"8/329 Orrong Road, Balaclava VIC 3183",Apartment / Unit / Flat,recentlyUpdated,1651.0,Requires Manual Inspection,R,e
147,147,147,147,147,147,147,147,147,147,147,147,147,16089413,400.0,3,1,0,$400 per week,"42 Ormond Road, Clayton VIC 3168",House,new,1738.0,"(-37.9198868, 145.1129718)",-37.9198868,145.1129718
148,148,148,148,148,148,148,148,148,148,148,148,148,16089407,460.0,4,2,2,$460.00,"23 Verdale Drive, Alfredton VIC 3350",House,new,1993.0,Requires Manual Inspection,R,e
149,149,149,149,149,149,149,149,149,149,149,149,149,16089405,800.0,4,2,2,$800 per week,"9 Renwarl Close, Berwick VIC 3806",House,new,3476.0,"(-38.0360099, 145.3532746)",-38.0360099,145.3532746
150,150,150,150,150,150,150,150,150,150,150,150,150,9046818,300.0,2,1,1,$300.00 per week pw,"2/2 Julie Court, Kangaroo Flat VIC 3555",Apartment / Unit / Flat,recentlyUpdated,1304.0,"(-36.8119336, 144.232566)",-36.8119336,144.232566
151,151,151,151,151,151,151,151,151,151,151,151,151,16089402,620.0,2,1,1,$620 per week,"123 Kent Street, Richmond VIC 3121",House,new,2694.0,"(-37.8148455, 145.0029756)",-37.8148455,145.0029756
152,152,152,152,152,152,152,152,152,152,152,152,152,16089398,380.0,2,1,2,$380 per week,"22 Dorset Road, Ferntree Gully VIC 3156",House,new,1651.0,"(-37.8857104, 145.2841142)",-37.8857104,145.2841142
153,153,153,153,153,153,153,153,153,153,153,153,153,16089385,440.0,1,1,1,$440,"909/91 Galada Street, Parkville VIC 3052",Apartment / Unit / Flat,new,1912.0,Requires Manual Inspection,R,e
154,154,154,154,154,154,154,154,154,154,154,154,154,16089376,410.0,4,2,2,$410 pw,"5 Verbena Drive, Point Cook VIC 3030",House,new,1782.0,"(-37.887161, 144.7315493)",-37.887161,144.7315493
155,155,155,155,155,155,155,155,155,155,155,155,155,16089374,400.0,1,1,0,$400 per week,"402/5 Sutherland Street, Melbourne VIC 3000",Apartment / Unit / Flat,new,1738.0,"(-37.8110719, 144.960791)",-37.8110719,144.960791
156,156,156,156,156,156,156,156,156,156,156,156,156,16089370,650.0,2,2,1,$650.00,"P108/12 Waterview Walk, Docklands VIC 3008",Apartment / Unit / Flat,new,2824.0,"(-37.8191279, 144.947233)",-37.8191279,144.947233
157,157,157,157,157,157,157,157,157,157,157,157,157,16089367,380.0,2,1,1,$380,"2/424 Ryrie Street, Geelong VIC 3220",Apartment / Unit / Flat,new,1650.0,"(-38.1474289, 144.3533325)",-38.1474289,144.3533325
158,158,158,158,158,158,158,158,158,158,158,158,158,16089366,260.0,1,1,0,$260pw,"1/126 Plenty River Drive, Greensborough VIC 3088",Apartment / Unit / Flat,new,1130.0,"(-37.6966515, 145.1083193)",-37.6966515,145.1083193
159,159,159,159,159,159,159,159,159,159,159,159,159,16089358,800.0,4,3,2,$800 per week pw,"1A Pamela Grove, Templestowe Lower VIC 3107",Townhouse,new,3476.0,"(-37.7583295, 145.108733)",-37.7583295,145.108733
160,160,160,160,160,160,160,160,160,160,160,160,160,16089357,450.0,3,2,2,$450 pw,"25 Leigh Drive, Pakenham VIC 3810",House,new,1955.0,"(-38.0605106, 145.4972455)",-38.0605106,145.4972455
161,161,161,161,161,161,161,161,161,161,161,161,161,16089352,980.0,4,3,2,$980.00,"25 Clarke Street, Templestowe VIC 3106",Townhouse,new,6387.0,"(-37.7526934, 145.1344528)",-37.7526934,145.1344528
162,162,162,162,162,162,162,162,162,162,162,162,162,16089348,600.0,2,1,1,$600 Per Week Fully Furnished,"204/5 Wilson St, South Yarra VIC 3141",Apartment / Unit / Flat,new,1700.0,"(-37.8437501, 144.9953546)",-37.8437501,144.9953546
163,163,163,163,163,163,163,163,163,163,163,163,163,16089349,690.0,3,1,1,$690.00 per week,"11/91 Mathoura Road, Toorak VIC 3142",Apartment / Unit / Flat,new,2998.0,"(-37.8437565, 145.0077595)",-37.8437565,145.0077595
164,164,164,164,164,164,164,164,164,164,164,164,164,16089347,580.0,2,1,2,$580pw/$2520pcm,"4 Sandown Road, Ascot Vale VIC 3032",House,new,2520.0,"(-37.783125, 144.9195038)",-37.783125,144.9195038
165,165,165,165,165,165,165,165,165,165,165,165,165,16089346,600.0,4,2,1,$600 Per Week,"1/12 Streldon Avenue, Strathmore VIC 3041",Townhouse,new,2608.0,"(-37.723881, 144.9104064)",-37.723881,144.9104064
166,166,166,166,166,166,166,166,166,166,166,166,166,16089345,700.0,2,1,0,$700 per week,"2509/81 Abeckett Street, Melbourne VIC 3000",Apartment / Unit / Flat,new,3042.0,"(-38.1171539, 145.1489982)",-38.1171539,145.1489982
167,167,167,167,167,167,167,167,167,167,167,167,167,15615638,390.0,4,2,0,$390 p.w.,"20 Regina Street, Mitchell Park VIC 3355",House,recentlyUpdated,1690.0,"(-37.5222149, 143.808834)",-37.5222149,143.808834
168,168,168,168,168,168,168,168,168,168,168,168,168,16089343,420.0,1,1,1,$420,"320/17 Lynch Street, Hawthorn VIC 3122",House,new,1825.0,"(-37.8214914, 145.032071)",-37.8214914,145.032071
169,169,169,169,169,169,169,169,169,169,169,169,169,16036637,360.0,3,1,1,$360,"53 Gray Street, Swan Hill VIC 3585",House,recentlyUpdated,1564.0,"(-35.3481249, 143.5598347)",-35.3481249,143.5598347
170,170,170,170,170,170,170,170,170,170,170,170,170,16089327,400.0,2,1,1,$400 Per Week,"2/28 Broadmeadows Road, Tullamarine VIC 3043",Apartment / Unit / Flat,new,1739.0,"(-37.7051386, 144.8791731)",-37.7051386,144.8791731
171,171,171,171,171,171,171,171,171,171,171,171,171,16089321,465.0,4,1,3,$465,"19 Amoore Avenue, Highton VIC 3216",House,new,2015.0,"(-38.1833961, 144.323053)",-38.1833961,144.323053
172,172,172,172,172,172,172,172,172,172,172,172,172,16089313,450.0,3,2,2,$450 per week,"6 Ginninderry Grange, Mernda VIC 3754",House,new,1995.0,"(-37.6127438, 145.1004579)",-37.6127438,145.1004579
173,173,173,173,173,173,173,173,173,173,173,173,173,16089308,285.0,1,1,1,$285.00 per week,"13/1 Warida Avenue, Malvern East VIC 3145",Apartment / Unit / Flat,new,1238.0,"(-37.879293, 145.0663562)",-37.879293,145.0663562
174,174,174,174,174,174,174,174,174,174,174,174,174,16089306,480.0,2,2,1,$480,"2/2 Leagh Court, Scoresby VIC 3179",House,new,2086.0,"(-37.894707, 145.2378547)",-37.894707,145.2378547
175,175,175,175,175,175,175,175,175,175,175,175,175,16089303,270.0,1,1,1,$270 PER WEEK,"9/20-24 Noble Street, Noble Park VIC 3174",Apartment / Unit / Flat,new,1173.0,"(-37.96868, 145.1737388)",-37.96868,145.1737388
176,176,176,176,176,176,176,176,176,176,176,176,176,16089304,390.0,3,2,2,$390pw,"1 Tamarisk Road, Narre Warren VIC 3805",House,new,1695.0,"(-38.0376228, 145.3151623)",-38.0376228,145.3151623
177,177,177,177,177,177,177,177,177,177,177,177,177,16089297,275.0,1,1,1,$275 PW / AVAIL. 30.09.2022,"2/1 Blundell Court, Traralgon VIC 3844",Apartment / Unit / Flat,new,1195.0,"(-38.1929658, 146.5234393)",-38.1929658,146.5234393
178,178,178,178,178,178,178,178,178,178,178,178,178,16089293,650.0,3,2,2,$650 Per Week,"19 Bruce Street, Preston VIC 3072",House,new,2824.0,"(-37.7424356, 145.0018581)",-37.7424356,145.0018581
179,179,179,179,179,179,179,179,179,179,179,179,179,16089287,400.0,1,1,0,$400 per week,"57/243 Collins Street, Melbourne VIC 3000",Studio,new,1739.0,"(-37.815886, 144.9652908)",-37.815886,144.9652908
180,180,180,180,180,180,180,180,180,180,180,180,180,16089273,610.0,2,2,0,$610,"3209/8 Sutherland Street, Melbourne VIC 3000",Apartment / Unit / Flat,new,2440.0,"(-37.8113042, 144.9609773)",-37.8113042,144.9609773
181,181,181,181,181,181,181,181,181,181,181,181,181,16089267,500.0,4,1,4,$500.00 per week,"17 Uley Street, Bendigo VIC 3550",House,new,2000.0,"(-36.7514187, 144.2828875)",-36.7514187,144.2828875
182,182,182,182,182,182,182,182,182,182,182,182,182,16089254,380.0,2,1,1,$380.00,"6/58 Leila Road, Carnegie VIC 3163",Apartment / Unit / Flat,new,1651.0,"(-37.9023688, 145.0595843)",-37.9023688,145.0595843
183,183,183,183,183,183,183,183,183,183,183,183,183,16089253,690.0,5,1,0,$690.00,"30 Acacia Avenue, Mentone VIC 3194",House,new,2998.0,"(-37.9821254, 145.0812005)",-37.9821254,145.0812005
184,184,184,184,184,184,184,184,184,184,184,184,184,16089251,440.0,4,2,2,$440 per week,"9B Killeen Avenue, Ballarat North VIC 3350",House,new,1907.0,Requires Manual Inspection,R,e
185,185,185,185,185,185,185,185,185,185,185,185,185,16089250,625.0,2,2,1,$625 per week,"2311/601 Little Lonsdale Street, Melbourne VIC 3000",Apartment / Unit / Flat,new,2716.0,"(-37.81389365, 144.9537209)",-37.81389365,144.9537209
186,186,186,186,186,186,186,186,186,186,186,186,186,16089248,610.0,2,1,1,$610/week,"711/8 Pearl River Road, Docklands VIC 3008",Apartment / Unit / Flat,new,2651.0,"(-37.8148286, 144.9376572)",-37.8148286,144.9376572
187,187,187,187,187,187,187,187,187,187,187,187,187,16089247,470.0,2,1,1,$470 per week,"18/30 Miles Street, Southbank VIC 3006",Apartment / Unit / Flat,new,2042.0,"(-37.8283328, 144.9659144)",-37.8283328,144.9659144
188,188,188,188,188,188,188,188,188,188,188,188,188,16089246,525.0,1,1,1,$525 per week,"203/5-7 Hotham Street, St Kilda East VIC 3183",Apartment / Unit / Flat,new,2281.0,"(-37.8697825, 144.9994042)",-37.8697825,144.9994042
189,189,189,189,189,189,189,189,189,189,189,189,189,16089242,320.0,1,1,0,$320.00,"212/363 Beaconsfield Parade, St Kilda West VIC 3182",Apartment / Unit / Flat,new,1391.0,"(-37.861008049999995, 144.97315895611428)",-37.861008049999995,144.97315895611428
190,190,190,190,190,190,190,190,190,190,190,190,190,16089237,380.0,1,1,1,$380.00,"1511/15 Everage Street, Moonee Ponds VIC 3039",Apartment / Unit / Flat,new,1654.0,"(-37.7655497, 144.9221414)",-37.7655497,144.9221414
191,191,191,191,191,191,191,191,191,191,191,191,191,16089235,650.0,4,2,1,$650.00,"22 Mall Court, Blackburn North VIC 3130",House,new,2824.0,"(-37.8077952, 145.1427745)",-37.8077952,145.1427745
192,192,192,192,192,192,192,192,192,192,192,192,192,16089234,380.0,1,1,1,$380.00,"8/1086 Lygon Street, Carlton North VIC 3054",Apartment / Unit / Flat,new,1651.0,"(-37.7869304, 144.9692438)",-37.7869304,144.9692438
193,193,193,193,193,193,193,193,193,193,193,193,193,16089233,550.0,3,2,1,$550 Per Week,"1/99 McNamara Avenue, Airport West VIC 3042",Townhouse,new,2390.0,"(-37.7262611, 144.8812347)",-37.7262611,144.8812347
194,194,194,194,194,194,194,194,194,194,194,194,194,16089231,530.0,2,1,1,$530 Per Week,"200 Darebin Road, Northcote VIC 3070",House,new,2303.0,"(-37.7637434, 145.0042653)",-37.7637434,145.0042653
195,195,195,195,195,195,195,195,195,195,195,195,195,16089227,460.0,3,2,2,$460,"28 Huntingfield Street, Craigieburn VIC 3064",House,new,1999.0,"(-37.5835842, 144.9078831)",-37.5835842,144.9078831
196,196,196,196,196,196,196,196,196,196,196,196,196,16089226,650.0,2,1,2,$650 per week,"504/1 Danks Street West, Port Melbourne VIC 3207",Apartment / Unit / Flat,new,2825.0,"(-37.8432735, 144.943785)",-37.8432735,144.943785
197,197,197,197,197,197,197,197,197,197,197,197,197,16089224,460.0,2,1,1,$460 per week,"13/102-104 Hillcrest Road, Frankston VIC 3199",House,new,1999.0,"(-38.1535456, 145.1439608)",-38.1535456,145.1439608
198,198,198,198,198,198,198,198,198,198,198,198,198,16089219,475.0,2,1,1,$475 per week,"1/59 Chapman Street, North Melbourne VIC 3051",Apartment / Unit / Flat,new,2064.0,"(-37.7950391, 144.9469947)",-37.7950391,144.9469947
199,199,199,199,199,199,199,199,199,199,199,199,199,16088904,440.0,3,2,1,$440.00 per week,"56 Sunnybrook Avenue, Warragul VIC 3820",House,new,1992.0,"(-38.151898, 145.9165974)",-38.151898,145.9165974
200,200,200,200,200,200,200,200,200,200,200,200,200,16089212,460.0,2,1,1,$460,"30/343 Beaconsfield Parade, St Kilda West VIC 3182",House,new,1993.0,"(-37.8614433, 144.9731009)",-37.8614433,144.9731009
201,201,201,201,201,201,201,201,201,201,201,201,201,16089211,640.0,4,2,2,$640 pw,"3 Trinity Drive, Langwarrin VIC 3910",House,new,2781.0,"(-38.1564143, 145.1871854)",-38.1564143,145.1871854
202,202,202,202,202,202,202,202,202,202,202,202,202,16089210,675.0,2,2,1,$675 per week,"1/42 Howitt Street, South Yarra VIC 3141",Apartment / Unit / Flat,new,4590.0,"(-37.8468531, 145.0014873)",-37.8468531,145.0014873
203,203,203,203,203,203,203,203,203,203,203,203,203,16089204,350.0,2,1,1,$350pw/$1608pcm,"7/122 Nepean Highway, Aspendale VIC 3195",Apartment / Unit / Flat,new,1608.0,"(-38.0199275, 145.0969354)",-38.0199275,145.0969354
204,204,204,204,204,204,204,204,204,204,204,204,204,16089189,500.0,3,1,1,$500 pw,"86A Eggleston Street, Ocean Grove VIC 3226",House,new,2000.0,"(-38.2621407, 144.5270476)",-38.2621407,144.5270476
205,205,205,205,205,205,205,205,205,205,205,205,205,12713206,340.0,1,1,0,$340 Per Week,"1116/6 Leicester Street, Carlton VIC 3053",Apartment / Unit / Flat,recentlyUpdated,1477.0,"(-37.8043046, 144.960361)",-37.8043046,144.960361
206,206,206,206,206,206,206,206,206,206,206,206,207,16089178,430.0,2,2,1,$430.00,"303/60 Autumn Terrace, Clayton South VIC 3169",Apartment / Unit / Flat,new,1868.0,"(-37.937631, 145.136761)",-37.937631,145.136761
207,207,207,207,207,207,207,207,207,207,207,207,208,16089175,350.0,1,1,0,$350 per week,"219/528 Swanston Street, Carlton VIC 3053",Apartment / Unit / Flat,new,1521.0,"(-37.8044323, 144.9634758)",-37.8044323,144.9634758
208,208,208,208,208,208,208,208,208,208,208,208,209,16089176,550.0,2,2,1,$550 per week,"108/14 David Street, Richmond VIC 3121",Apartment / Unit / Flat,new,2390.0,"(-37.8147977, 145.0118159)",-37.8147977,145.0118159
209,209,209,209,209,209,209,209,209,209,209,209,210,16089174,230.0,1,1,1,$230 pw,"4/4 Murray Street, Thornbury VIC 3071",Apartment / Unit / Flat,new,999.0,"(-37.7545147, 144.9964438)",-37.7545147,144.9964438
210,210,210,210,210,210,210,210,210,210,210,210,211,16089172,360.0,2,1,2,$360.00 per week,"1 Louis Street, Long Gully VIC 3550",House,new,1440.0,"(-36.7496425, 144.2621281)",-36.7496425,144.2621281
211,211,211,211,211,211,211,211,211,211,211,211,212,11817724,350.0,1,1,1,$350 Per Week,"G15/12 Olive York Way, Brunswick West VIC 3055",Apartment / Unit / Flat,recentlyUpdated,1521.0,"(-37.7588792, 144.9393356)",-37.7588792,144.9393356
212,212,212,212,212,212,212,212,212,212,212,212,213,16089163,550.0,4,2,4,$550,"3 Burberry Court, Highton VIC 3216",House,new,2383.0,"(-38.1620203, 144.3037842)",-38.1620203,144.3037842
213,213,213,213,213,213,213,213,213,213,213,213,214,15156120,560.0,3,2,2,$560,"83A Leigh Road, Highton VIC 3216",House,recentlyUpdated,2435.0,"(-38.1638129, 144.306278)",-38.1638129,144.306278
214,214,214,214,214,214,214,214,214,214,214,214,215,16089159,500.0,3,2,4,$500,"4 Fran Court, Werribee VIC 3030",House,new,2173.0,"(-37.9033678, 144.6352217)",-37.9033678,144.6352217
215,215,215,215,215,215,215,215,215,215,215,215,216,16089146,565.0,2,2,1,$565 weekly,"303/79 Mitchell Street, Bentleigh VIC 3204",Apartment / Unit / Flat,new,2455.0,"(-37.9190662, 145.0394569)",-37.9190662,145.0394569
216,216,216,216,216,216,216,216,216,216,216,216,217,16089060,320.0,3,1,2,$320 pw,"9 Napier Street, Maryborough VIC 3465",House,new,1280.0,"(-37.0496452, 143.7370076)",-37.0496452,143.7370076
217,217,217,217,217,217,217,217,217,217,217,217,218,16089144,700.0,2,2,1,$700 per week,"204/55 Wellington Street, St Kilda VIC 3182",Apartment / Unit / Flat,new,3041.0,"(-37.8564081, 144.9833672)",-37.8564081,144.9833672
218,218,218,218,218,218,218,218,218,218,218,218,219,16089142,420.0,2,1,1,$420 Per Week,"4/11 Margaret Street, Oak Park VIC 3046",Apartment / Unit / Flat,new,1825.0,"(-37.7215428, 144.9198366)",-37.7215428,144.9198366
219,219,219,219,219,219,219,219,219,219,219,219,220,16089139,330.0,2,1,2,$330 P/W,"33 Myalla Street, Braybrook VIC 3019",House,new,1434.0,"(-37.7878973, 144.8480387)",-37.7878973,144.8480387
220,220,220,220,220,220,220,220,220,220,220,220,221,15079788,475.0,4,2,2,$475,"40 Karabair Street, Clyde North VIC 3978",House,recentlyUpdated,2064.0,"(-38.1069214, 145.3277956)",-38.1069214,145.3277956
221,221,221,221,221,221,221,221,221,221,221,221,222,16089129,390.0,3,2,2,$390,"6 Myoora St, Werribee VIC 3030",House,new,1690.0,"(-37.9035034, 144.6164134)",-37.9035034,144.6164134
222,222,222,222,222,222,222,222,222,222,222,222,223,16089126,450.0,1,1,1,$450 per week,"804/50 Claremont Street, South Yarra VIC 3141",Apartment / Unit / Flat,new,1956.0,"(-37.8377585, 144.9938493)",-37.8377585,144.9938493
223,223,223,223,223,223,223,223,223,223,223,223,224,16089123,340.0,3,1,1,$340.00,"1032 Grevillea Road, Wendouree VIC 3355",House,new,1473.0,"(-37.5269716, 143.8187227)",-37.5269716,143.8187227
224,224,224,224,224,224,224,224,224,224,224,224,225,15327923,430.0,1,1,1,$430 per week,"209/1 Dyer Street, Richmond VIC 3121",Apartment / Unit / Flat,recentlyUpdated,1869.0,"(-37.8174134, 145.0031825)",-37.8174134,145.0031825
225,225,225,225,225,225,225,225,225,225,225,225,226,16089116,430.0,2,2,1,$430,"104/2 Clark Street, Williams Landing VIC 3027",House,new,1868.0,"(-37.8658494, 144.7442436)",-37.8658494,144.7442436
226,226,226,226,226,226,226,226,226,226,226,226,227,16089114,680.0,4,2,2,$680,"21 Overland Drive, Vermont South VIC 3133",House,new,2946.0,"(-37.8632638, 145.1855513)",-37.8632638,145.1855513
227,227,227,227,227,227,227,227,227,227,227,227,228,16089111,500.0,3,1,3,$500 weekly,"14 Park Ave, Doncaster VIC 3108",House,new,2173.0,"(-37.7845796, 145.1017197)",-37.7845796,145.1017197
228,228,228,228,228,228,228,228,228,228,228,228,229,16089108,650.0,4,2,2,$650,"5 Washington Drive, Oakleigh South VIC 3167",House,new,2824.0,"(-37.9361443, 145.0841642)",-37.9361443,145.0841642
229,229,229,229,229,229,229,229,229,229,229,229,230,14811973,470.0,3,3,2,$470,"1/99-101 Old Geelong Road, Laverton VIC 3028",House,recentlyUpdated,2042.0,"(-37.8465007, 144.7767099)",-37.8465007,144.7767099
230,230,230,230,230,230,230,230,230,230,230,230,231,16089105,270.0,1,1,1,$270.00,"Rooms 1 - 8/2A Walsgott Street, North Geelong VIC 3215",House,new,1173.0,"(-38.1172213, 144.3444804)",-38.1172213,144.3444804
231,231,231,231,231,231,231,231,231,231,231,231,232,16089101,500.0,4,2,2,$500 Per Week,"18 Glenn Erin Way, Berwick VIC 3806",House,new,2173.0,"(-38.0502927, 145.3294048)",-38.0502927,145.3294048
232,232,232,232,232,232,232,232,232,232,232,232,233,16089098,695.0,4,2,4,$695.00,"6 Jaques Grove, Forest Hill VIC 3131",House,new,3020.0,"(-37.8427799, 145.168715)",-37.8427799,145.168715
233,233,233,233,233,233,233,233,233,233,233,233,234,16089095,680.0,4,3,2,$680 weekly,"3/12 Warnes Rd, Mitcham VIC 3132",Townhouse,new,2955.0,"(-37.8143909, 145.211079)",-37.8143909,145.211079
234,234,234,234,234,234,234,234,234,234,234,234,235,16089093,500.0,3,2,2,$500 p/w,"55 Malone Cct, Deanside VIC 3336",House,new,2173.0,"(-37.7239278, 144.7201605)",-37.7239278,144.7201605
235,235,235,235,235,235,235,235,235,235,235,235,236,16089089,325.0,1,1,1,$325 per week,"1/263 Lennox Street, Richmond VIC 3121",Apartment / Unit / Flat,new,1412.0,"(-37.8132468, 144.9954709)",-37.8132468,144.9954709
236,236,236,236,236,236,236,236,236,236,236,236,237,14537623,490.0,4,2,2,$490.00 Per Week,"7 Kestrel Dr, Shepparton VIC 3630",House,recentlyUpdated,2123.0,"(-36.3561612, 145.4085503)",-36.3561612,145.4085503
237,237,237,237,237,237,237,237,237,237,237,237,238,16089085,490.0,3,1,1,$490,"6 Netherbrae Road, Frankston VIC 3199",House,new,2129.0,"(-38.145712, 145.1515241)",-38.145712,145.1515241
238,238,238,238,238,238,238,238,238,238,238,238,239,15276679,565.0,2,2,1,$565 weekly,"G02/15 Hamilton Street, Bentleigh VIC 3204",Apartment / Unit / Flat,recentlyUpdated,2456.0,"(-37.9162817, 145.0367373)",-37.9162817,145.0367373
239,239,239,239,239,239,239,239,239,239,239,239,240,16089083,450.0,3,1,3,$450pw,"333 Blackshaws Road, Altona North VIC 3025",House,new,1955.0,"(-37.8299252, 144.8366057)",-37.8299252,144.8366057
240,240,240,240,240,240,240,240,240,240,240,240,241,16089081,445.0,2,1,1,$445 Per Week,"34/45 Decarle Street, Brunswick VIC 3056",Apartment / Unit / Flat,new,1934.0,"(-37.7610951, 144.9649955)",-37.7610951,144.9649955
241,241,241,241,241,241,241,241,241,241,241,241,242,16089076,210.0,1,1,2,$210.00 per week,"142C Thirteenth Street, Mildura VIC 3500",House,new,910.0,"(-34.184166, 142.1438896)",-34.184166,142.1438896
242,242,242,242,242,242,242,242,242,242,242,242,243,16089071,420.0,3,2,2,$420,"12 Wood Street, Mildura VIC 3500",House,new,1820.0,Requires Manual Inspection,R,e
243,243,243,243,243,243,243,243,243,243,243,243,244,16089068,750.0,4,3,4,$750 per week,"384 Pryors Road, Scotsburn VIC 3352",House,new,3259.0,"(-37.7030218, 143.9384877)",-37.7030218,143.9384877
244,244,244,244,244,244,244,244,244,244,244,244,245,16089058,365.0,2,1,1,$365 pwk,"10 Palmero Street, Epping VIC 3076",House,new,1586.0,"(-37.6339167, 145.0028282)",-37.6339167,145.0028282
245,245,245,245,245,245,245,245,245,245,245,245,246,16089057,360.0,2,1,2,$360.00,"67 Pacific Drive, Heidelberg West VIC 3081",House,new,1564.0,"(-37.7389055, 145.042583)",-37.7389055,145.042583
246,246,246,246,246,246,246,246,246,246,246,246,247,16089056,380.0,3,1,1,$380,"16 Camms Road, Cranbourne VIC 3977",House,new,1652.0,"(-38.0964908, 145.2689328)",-38.0964908,145.2689328
247,247,247,247,247,247,247,247,247,247,247,247,248,16089041,500.0,2,1,1,$500 per week,"1004/15 Clifton Street, Prahran VIC 3181",Apartment / Unit / Flat,new,2173.0,"(-37.8510562, 144.9952359)",-37.8510562,144.9952359
248,248,248,248,248,248,248,248,248,248,248,248,249,16089038,500.0,4,2,0,$500 Wk,"109 Lee Street, Stratford VIC 3862",House,new,2000.0,"(-37.9723667, 147.0952552)",-37.9723667,147.0952552
249,249,249,249,249,249,249,249,249,249,249,249,250,16089033,450.0,2,1,1,$450.00,"2/64 Erskine Road, Macleod VIC 3085",Townhouse,new,1955.0,"(-37.7300168, 145.0794183)",-37.7300168,145.0794183
250,250,250,250,250,250,250,250,250,250,250,250,251,15790037,550.0,4,2,1,$550,"1/27 Evelyn Street, Clayton VIC 3168",House,recentlyUpdated,2390.0,"(-37.9175967, 145.1317286)",-37.9175967,145.1317286
251,251,251,251,251,251,251,251,251,251,251,251,252,16089029,490.0,1,1,0,$490/W Partical Furnished,"613/33 MacKenzie Street, Melbourne VIC 3000",Apartment / Unit / Flat,new,2129.0,"(-37.807427, 144.9671085)",-37.807427,144.9671085
252,252,252,252,252,252,252,252,252,252,252,252,253,16089027,430.0,2,1,1,$430,"G13/358 Moreland Road, Brunswick West VIC 3055",House,new,1868.0,"(-37.7520739, 144.9353252)",-37.7520739,144.9353252
253,253,253,253,253,253,253,253,253,253,253,253,254,16089025,350.0,3,1,2,$350.00 per week,"87 Robertson Street, Morwell VIC 3840",House,new,1516.0,"(-38.227158, 146.4196352)",-38.227158,146.4196352
254,254,254,254,254,254,254,254,254,254,254,254,255,16089013,410.0,4,2,2,$410 per week,"55 Bourke Crescent, Hoppers Crossing VIC 3029",House,new,1782.0,"(-37.8701996, 144.6872588)",-37.8701996,144.6872588
255,255,255,255,255,255,255,255,255,255,255,255,256,15087783,350.0,3,2,2,$350 pw,"61 Abbeygate Drive, Werribee VIC 3030",House,recentlyUpdated,1521.0,"(-37.9050577, 144.5943555)",-37.9050577,144.5943555
256,256,256,256,256,256,256,256,256,256,256,256,257,16089008,370.0,2,1,1,$370 per week,"1/30 Buckland Court, Wodonga VIC 3690",Apartment / Unit / Flat,new,1603.0,"(-36.1154026, 146.8590426)",-36.1154026,146.8590426
257,257,257,257,257,257,257,257,257,257,257,257,258,16089005,350.0,2,1,1,$350 per week,"1/4 Lyndale Court, Ferntree Gully VIC 3156",Apartment / Unit / Flat,new,1521.0,"(-37.8916681, 145.2902428)",-37.8916681,145.2902428
258,258,258,258,258,258,258,258,258,258,258,258,259,16089004,480.0,2,2,1,$480.00,"2/26 York Street, Reservoir VIC 3073",Townhouse,new,2086.0,"(-37.7279389, 144.9911773)",-37.7279389,144.9911773
259,259,259,259,259,259,259,259,259,259,259,259,260,16089002,620.0,3,1,1,$620 per week,"115B Collins Street, Thornbury VIC 3071",Townhouse,new,2694.0,"(-37.7547869, 145.0017867)",-37.7547869,145.0017867
260,260,260,260,260,260,260,260,260,260,260,260,261,16089000,675.0,3,1,0,$675 per week,"41 Haines Street, Hawthorn VIC 3122",House,new,2933.0,"(-37.8193615, 145.0407223)",-37.8193615,145.0407223
261,261,261,261,261,261,261,261,261,261,261,261,262,16087294,485.0,2,1,1,$485,"121/5 Beavers Road, Northcote VIC 3070",Apartment / Unit / Flat,new,2350.0,"(-37.765321, 144.9866229)",-37.765321,144.9866229
262,262,262,262,262,262,262,262,262,262,262,262,263,15335652,475.0,1,1,1,$475 per week,"508/12 Yarra Street, South Yarra VIC 3141",Apartment / Unit / Flat,recentlyUpdated,2064.0,"(-37.8359474, 144.9931004)",-37.8359474,144.9931004
263,263,263,263,263,263,263,263,263,263,263,263,264,16088988,440.0,2,2,1,$440.00,"207/1 Archibald Street, Box Hill VIC 3128",House,new,1912.0,"(-37.8168125, 145.1221094)",-37.8168125,145.1221094
264,264,264,264,264,264,264,264,264,264,264,264,265,16088986,370.0,2,1,1,$370.00 per week,"29 Glenorchy Way, South Morang VIC 3752",Apartment / Unit / Flat,new,1608.0,"(-37.6321504, 145.0854138)",-37.6321504,145.0854138
265,265,265,265,265,265,265,265,265,265,265,265,266,16088974,650.0,3,2,2,$650 per week,"205/170 Manningham Road, Bulleen VIC 3105",Apartment / Unit / Flat,new,2824.0,"(-37.7655359, 145.0873681)",-37.7655359,145.0873681
266,266,266,266,266,266,266,266,266,266,266,266,267,16088973,650.0,2,1,1,$650 per week,"4509/135 A'beckett Street, Melbourne VIC 3000",Apartment / Unit / Flat,new,2825.0,"(-37.8096114, 144.9595749)",-37.8096114,144.9595749
267,267,267,267,267,267,267,267,267,267,267,267,268,16088971,480.0,2,2,1,$480 per week per week,"A18/335 Abbotsford Street, North Melbourne VIC 3051",Apartment / Unit / Flat,new,2080.0,"(-37.7975039, 144.9463788)",-37.7975039,144.9463788
268,268,268,268,268,268,268,268,268,268,268,268,269,16088967,530.0,2,1,1,$530.00,"238 Mitchell Street, Northcote VIC 3070",House,new,2303.0,"(-37.7725031, 145.0026935)",-37.7725031,145.0026935
269,269,269,269,269,269,269,269,269,269,269,269,270,16088965,350.0,3,1,0,$350.00 per week,"418 Forge Creek Road, Bairnsdale VIC 3875",House,new,1521.0,"(-37.8935333, 147.6132126)",-37.8935333,147.6132126
270,270,270,270,270,270,270,270,270,270,270,270,271,15790494,390.0,3,1,1,$390 wk,"1/96 Wallace Street, Bairnsdale VIC 3875",Apartment / Unit / Flat,recentlyUpdated,1560.0,"(-37.8229443, 147.5943025)",-37.8229443,147.5943025
271,271,271,271,271,271,271,271,271,271,271,271,272,16088954,680.0,3,1,0,$680 per week,"67 Church Street, Richmond VIC 3121",House,new,2955.0,"(-37.810965, 145.0006203)",-37.810965,145.0006203
272,272,272,272,272,272,272,272,272,272,272,272,273,16088949,450.0,2,1,1,$450.00,"18/570 Glenferrie Road, Hawthorn VIC 3122",Apartment / Unit / Flat,new,1955.0,"(-37.8241335, 145.0350713)",-37.8241335,145.0350713
273,273,273,273,273,273,273,273,273,273,273,273,274,15968159,440.0,2,1,1,$440.00,"1/164 Leila Road, Carnegie VIC 3163",House,live,1912.0,"(-37.9023688, 145.0595843)",-37.9023688,145.0595843
274,274,274,274,274,274,274,274,274,274,274,274,275,16088941,460.0,4,2,2,$460,"16 Keppel Way, Point Cook VIC 3030",House,new,1999.0,"(-37.9091098, 144.7360653)",-37.9091098,144.7360653
275,275,275,275,275,275,275,275,275,275,275,275,276,16088937,395.0,2,1,1,$395 Per Week,"5/28 Southenhay Street, Reservoir VIC 3073",Apartment / Unit / Flat,new,1716.0,Requires Manual Inspection,R,e
276,276,276,276,276,276,276,276,276,276,276,276,277,16088932,470.0,3,2,2,$470 per week,"14 Pardalote Avenue, Carrum Downs VIC 3201",House,new,2042.0,"(-38.1066396, 145.1856009)",-38.1066396,145.1856009
277,277,277,277,277,277,277,277,277,277,277,277,278,16088928,350.0,3,2,2,$350 Per Week,"3/16 Marlo Drive, Harkness VIC 3337",House,new,1521.0,"(-37.6685517, 144.5561138)",-37.6685517,144.5561138
278,278,278,278,278,278,278,278,278,278,278,278,279,16088924,510.0,3,1,3,$510.00,"2 Ashby Court, Chadstone VIC 3148",House,new,2216.0,"(-37.8855646, 145.1076608)",-37.8855646,145.1076608
279,279,279,279,279,279,279,279,279,279,279,279,280,16088910,500.0,3,1,1,$500,"32 Pratt Avenue, Frankston South VIC 3199",House,new,2173.0,"(-38.162205, 145.1233854)",-38.162205,145.1233854
280,280,280,280,280,280,280,280,280,280,280,280,281,16088902,500.0,3,2,2,$500 weekly,"8 Watt Way, Armstrong Creek VIC 3217",House,new,2173.0,"(-38.2299788, 144.3618947)",-38.2299788,144.3618947
281,281,281,281,281,281,281,281,281,281,281,281,282,15926763,240.0,1,1,2,"$240 PW / $1,043 PCM","10/1 Cromwell Street, Glenroy VIC 3046",Apartment / Unit / Flat,recentlyUpdated,1043.0,"(-37.7045036, 144.9220569)",-37.7045036,144.9220569
282,282,282,282,282,282,282,282,282,282,282,282,283,16088894,420.0,2,1,1,$420,"12A/160 Gordons Road, South Morang VIC 3752",House,new,1820.0,"(-37.6253018, 145.0678067)",-37.6253018,145.0678067
283,283,283,283,283,283,283,283,283,283,283,283,284,16088887,440.0,1,1,1,$440 per week,"55/39 Dorcas Street, South Melbourne VIC 3205",Apartment / Unit / Flat,new,1651.0,"(-37.8320475, 144.963876)",-37.8320475,144.963876
284,284,284,284,284,284,284,284,284,284,284,284,285,16088878,255.0,1,1,0,$255 Per Week,"2/8-10 John Street, Traralgon VIC 3844",Apartment / Unit / Flat,new,1105.0,"(-38.1927267, 146.5484543)",-38.1927267,146.5484543
285,285,285,285,285,285,285,285,285,285,285,285,286,15973863,550.0,3,2,2,$550 per week,"1/68 Waverley Road, Chadstone VIC 3148",Apartment / Unit / Flat,recentlyUpdated,2390.0,"(-37.8803002, 145.090837)",-37.8803002,145.090837
286,286,286,286,286,286,286,286,286,286,286,286,287,16088872,350.0,1,1,1,$350.00,"110/356 Bell Street, Preston VIC 3072",Apartment / Unit / Flat,new,1521.0,"(-37.7446782, 145.0007805)",-37.7446782,145.0007805
287,287,287,287,287,287,287,287,287,287,287,287,288,16088869,390.0,1,1,1,$390 weekly,"G02/183-189 Bridge Road, Richmond VIC 3121",Apartment / Unit / Flat,new,1695.0,"(-37.8182639, 144.9963825)",-37.8182639,144.9963825
288,288,288,288,288,288,288,288,288,288,288,288,289,16088864,370.0,2,1,2,$370,"1/155 Hickford Street, Reservoir VIC 3073",Apartment / Unit / Flat,new,1607.0,"(-37.7038556, 145.0164985)",-37.7038556,145.0164985
289,289,289,289,289,289,289,289,289,289,289,289,290,15195616,580.0,5,2,2,"$580pw / $2,520pcm","19 Scott Grove, Kingsbury VIC 3083",House,recentlyUpdated,2520.0,"(-37.7182613, 145.03675938785193)",-37.7182613,145.03675938785193
290,290,290,290,290,290,290,290,290,290,290,290,291,16088863,925.0,2,2,1,$925,"3/53 Barry Street, South Yarra VIC 3141",Apartment / Unit / Flat,new,4008.0,"(-37.8451386, 144.9934476)",-37.8451386,144.9934476
291,291,291,291,291,291,291,291,291,291,291,291,292,16088859,450.0,4,2,2,$450,"38 Caucasus Street, Truganina VIC 3029",House,new,1955.0,"(-37.7621308, 144.6944863)",-37.7621308,144.6944863
292,292,292,292,292,292,292,292,292,292,292,292,293,16088856,450.0,2,1,1,$450 pw,"9 Trevannion Street, Glenroy VIC 3046",House,new,1955.0,"(-37.6988336, 144.9186149)",-37.6988336,144.9186149
293,293,293,293,293,293,293,293,293,293,293,293,294,16088854,450.0,4,2,2,$450,"3 Marlin Crescent, Point Cook VIC 3030",House,new,1955.0,"(-37.9097558, 144.7351796)",-37.9097558,144.7351796
294,294,294,294,294,294,294,294,294,294,294,294,295,16088853,750.0,3,2,2,$750.00,"52 Sutherland Street, Brunswick VIC 3056",Townhouse,new,3259.0,"(-37.7616345, 144.9549189)",-37.7616345,144.9549189
295,295,295,295,295,295,295,295,295,295,295,295,296,16088852,430.0,3,1,2,$430 per week,"4 Larkspur Close, Epping VIC 3076",House,new,1868.0,"(-37.6487049, 145.0583026)",-37.6487049,145.0583026
296,296,296,296,296,296,296,296,296,296,296,296,297,16088850,550.0,3,2,4,$550 Per Week,"644 Esplanade, Mornington VIC 3931",House,new,2390.0,"(-38.2161698, 145.0359116)",-38.2161698,145.0359116
297,297,297,297,297,297,297,297,297,297,297,297,298,16088849,660.0,4,2,4,$660 per week,"6 Eskdale Court, Mornington VIC 3931",House,new,2868.0,"(-38.2427263, 145.0602901)",-38.2427263,145.0602901
298,298,298,298,298,298,298,298,298,298,298,298,299,16088847,400.0,2,1,1,$400 Per Week,"6/168 Canadian Bay Road, Mount Eliza VIC 3930",Apartment / Unit / Flat,new,1738.0,"(-38.1832744, 145.0887438)",-38.1832744,145.0887438
299,299,299,299,299,299,299,299,299,299,299,299,300,16088846,525.0,2,1,1,$525 per week,"108/10 Bromham Place, Richmond VIC 3121",Apartment / Unit / Flat,new,2281.0,"(-37.8142992, 144.998194)",-37.8142992,144.998194
300,300,300,300,300,300,300,300,300,300,300,300,301,16088845,395.0,2,1,0,$395pw / $1716pcm,"1/97 Gooch Street, Thornbury VIC 3071",Apartment / Unit / Flat,new,1716.0,"(-37.7584652, 145.0053696)",-37.7584652,145.0053696
301,301,301,301,301,301,301,301,301,301,301,301,302,16088843,420.0,2,1,1,$420,"211/17-21 Queen Street, Blackburn VIC 3130",Apartment / Unit / Flat,new,1825.0,"(-37.8187143, 145.1513766)",-37.8187143,145.1513766
302,302,302,302,302,302,302,302,302,302,302,302,303,16088837,430.0,3,1,3,$430 per week,"1 Abbey Drive, Lara VIC 3212",House,new,1869.0,"(-38.026498849999996, 144.4235908416366)",-38.026498849999996,144.4235908416366
303,303,303,303,303,303,303,303,303,303,303,303,304,16088830,550.0,4,1,2,$550 per week,"21 Nathan Street, Doncaster VIC 3108",House,new,2390.0,"(-37.785567, 145.1402244)",-37.785567,145.1402244
304,304,304,304,304,304,304,304,304,304,304,304,305,16088823,420.0,2,1,1,$420,"2c/160 Gordons Road, South Morang VIC 3752",House,new,1820.0,"(-37.6253018, 145.0678067)",-37.6253018,145.0678067
305,305,305,305,305,305,305,305,305,305,305,305,306,16088821,720.0,4,2,2,$720 per week,"42 Littlecroft Avenue, Narre Warren VIC 3805",House,new,3129.0,"(-38.065447000000006, 145.30019174803036)",-38.065447000000006,145.30019174803036
306,306,306,306,306,306,306,306,306,306,306,306,307,15906600,400.0,1,1,0,$400 p/week furnished,"3310B/100 Harbour Esplanade, Docklands VIC 3008",Apartment / Unit / Flat,recentlyUpdated,1600.0,"(-37.818273399999995, 144.9471193241901)",-37.818273399999995,144.9471193241901
307,307,307,307,307,307,307,307,307,307,307,307,308,16088807,620.0,2,2,1,$620 per week,"306/353 Napier Street, Fitzroy VIC 3065",Apartment / Unit / Flat,new,2695.0,"(-37.8017202, 144.980179)",-37.8017202,144.980179
308,308,308,308,308,308,308,308,308,308,308,308,309,16088805,355.0,2,1,1,$355 weekly,"3/50 Magnolia Road, Gardenvale VIC 3185",Apartment / Unit / Flat,new,1543.0,"(-37.8981487, 145.0101374)",-37.8981487,145.0101374
309,309,309,309,309,309,309,309,309,309,309,309,310,16088796,525.0,2,1,1,$525 weekly,"1/77 Darling Rd, Malvern East VIC 3145",Townhouse,new,2281.0,"(-37.8697242, 145.0607029)",-37.8697242,145.0607029
310,310,310,310,310,310,310,310,310,310,310,310,311,16088792,415.0,1,1,1,$415.00,"6/40 Millswyn Street, South Yarra VIC 3141",Apartment / Unit / Flat,new,1803.0,"(-37.8353713, 144.9804047)",-37.8353713,144.9804047
311,311,311,311,311,311,311,311,311,311,311,311,312,16088790,650.0,4,2,2,$650,"90 Oakdean Boulevard, Ocean Grove VIC 3226",House,new,2816.0,"(-38.2505763, 144.5514952)",-38.2505763,144.5514952
312,312,312,312,312,312,312,312,312,312,312,312,313,16088785,1200.0,3,2,2,"$1,200.00","5 Macfarlan Lane, South Yarra VIC 3141",Townhouse,new,7821.0,"(-37.8400483, 144.9886678)",-37.8400483,144.9886678
313,313,313,313,313,313,313,313,313,313,313,313,314,16088786,225.0,1,1,0,$225 per week,"17/677 Park Street, Brunswick VIC 3056",Studio,new,975.0,"(-37.778103776923075, 144.96238525384615)",-37.778103776923075,144.96238525384615
314,314,314,314,314,314,314,314,314,314,314,314,315,16088784,430.0,3,1,3,$430 per week,"9 Corvi Court, Lara VIC 3212",House,new,1869.0,"(-38.0194979, 144.4099552)",-38.0194979,144.4099552
315,315,315,315,315,315,315,315,315,315,315,315,316,16088782,875.0,2,2,2,$875.00,"2603/90 Lorimer Street, Docklands VIC 3008",Apartment / Unit / Flat,new,3802.0,"(-37.8233664, 144.9387177)",-37.8233664,144.9387177
316,316,316,316,316,316,316,316,316,316,316,316,317,15056186,480.0,2,1,1,$480 PER WEEK,"2/39 Morrah St, Parkville VIC 3052",Apartment / Unit / Flat,recentlyUpdated,2086.0,"(-37.794947, 144.9541744)",-37.794947,144.9541744
317,317,317,317,317,317,317,317,317,317,317,317,318,16088780,420.0,2,1,1,$420.00 pw,"3/1a Genoa Avenue, Bonbeach VIC 3196",Apartment / Unit / Flat,new,2607.0,"(-38.0628095, 145.1252398)",-38.0628095,145.1252398
318,318,318,318,318,318,318,318,318,318,318,318,319,14282224,500.0,2,1,1,$500 per week,"4 Highridge Crescent, Airport West VIC 3042",Townhouse,recentlyUpdated,2172.0,"(-37.7263904, 144.8832305)",-37.7263904,144.8832305
319,319,319,319,319,319,319,319,319,319,319,319,320,16088756,420.0,3,2,1,$420,"7 Langer Road, Deanside VIC 3336",House,new,1820.0,Requires Manual Inspection,R,e
320,320,320,320,320,320,320,320,320,320,320,320,321,16088757,410.0,3,2,3,$410,"53 Hillside Street, Springvale VIC 3171",House,new,1783.0,"(-37.9370176, 145.1663749)",-37.9370176,145.1663749
321,321,321,321,321,321,321,321,321,321,321,321,322,16088753,390.0,3,1,1,$390 per week,"1 Eades Place, Craigieburn VIC 3064",House,new,1695.0,Requires Manual Inspection,R,e
322,322,322,322,322,322,322,322,322,322,322,322,323,16088755,350.0,2,1,1,$350.00 per week,"5/173 Edward Street, Reservoir VIC 3073",Apartment / Unit / Flat,new,1521.0,Requires Manual Inspection,R,e
323,323,323,323,323,323,323,323,323,323,323,323,324,16088754,350.0,2,1,1,$350.00 per week,"5/173 Edward Street, Reservoir VIC 3073",Apartment / Unit / Flat,new,1521.0,Requires Manual Inspection,R,e
324,324,324,324,324,324,324,324,324,324,324,324,325,16088751,400.0,4,2,2,$400 per week,"7 Ross Parade, Wallan VIC 3756",House,new,1738.0,"(-37.4237966, 144.9974722)",-37.4237966,144.9974722
325,325,325,325,325,325,325,325,325,325,325,325,326,16088738,400.0,2,1,1,$400 pw,"10/94 Tennyson Street, Elwood VIC 3184",House,new,1738.0,"(-37.8792044, 144.9903528)",-37.8792044,144.9903528
326,326,326,326,326,326,326,326,326,326,326,326,327,16088736,550.0,3,2,2,$550.00,"2/67 Russell Crescent, Doncaster East VIC 3109",Townhouse,new,2390.0,"(-37.7961456, 145.167534)",-37.7961456,145.167534
327,327,327,327,327,327,327,327,327,327,327,327,328,16088731,340.0,1,1,1,$340.00,"23/213 Normanby Road, Notting Hill VIC 3168",Apartment / Unit / Flat,new,1477.0,"(-37.9061259, 145.1374145)",-37.9061259,145.1374145
328,328,328,328,328,328,328,328,328,328,328,328,329,16088726,340.0,1,1,1,$340,"2/10 Duncan Road, Lalor VIC 3075",Apartment / Unit / Flat,new,1473.0,"(-37.6667791, 145.0138968)",-37.6667791,145.0138968
329,329,329,329,329,329,329,329,329,329,329,329,330,16088721,500.0,4,1,1,$500 Per Week,"27 View Street, Essendon West VIC 3040",House,new,2172.0,"(-37.7541904, 144.8844504)",-37.7541904,144.8844504
330,330,330,330,330,330,330,330,330,330,330,330,331,16088720,380.0,3,1,2,$380.00 per week,"133 Tamar Drive, Deer Park VIC 3023",House,new,1651.0,"(-37.7562774, 144.7614636)",-37.7562774,144.7614636
331,331,331,331,331,331,331,331,331,331,331,331,332,15416058,400.0,4,2,2,$400,"4 Coolbinia Avenue, Werribee VIC 3030",House,recentlyUpdated,1738.0,Requires Manual Inspection,R,e
332,332,332,332,332,332,332,332,332,332,332,332,333,16088714,525.0,2,1,1,$525 Per Week,"312/52 Park Street, South Melbourne VIC 3205",Apartment / Unit / Flat,new,2281.0,"(-37.8343253, 144.9645107)",-37.8343253,144.9645107
333,333,333,333,333,333,333,333,333,333,333,333,334,16088712,400.0,3,2,2,$400 Per Week,"48 Meadow Glen Dr, Melton West VIC 3337",House,new,1738.0,"(-37.6789286, 144.5461604)",-37.6789286,144.5461604
334,334,334,334,334,334,334,334,334,334,334,334,335,15726473,500.0,2,2,1,$500 weekly,"104 / 252 Bay Road, Sandringham VIC 3191",Apartment / Unit / Flat,recentlyUpdated,2173.0,"(-37.9530507, 145.0144577)",-37.9530507,145.0144577
335,335,335,335,335,335,335,335,335,335,335,335,336,16088705,420.0,2,2,1,$420 weekly,"4/73 Edgar St North, Glen Iris VIC 3146",Apartment / Unit / Flat,new,1825.0,"(-37.8509716, 145.0461654)",-37.8509716,145.0461654
336,336,336,336,336,336,336,336,336,336,336,336,337,16024864,1100.0,4,3,2,"$1,100.00","A/19 Elm Grove, Parkdale VIC 3195",Townhouse,leased,4780.0,"(-37.9931807, 145.0823824)",-37.9931807,145.0823824
337,337,337,337,337,337,337,337,337,337,337,337,338,16088690,395.0,2,1,1,"$395pw/$1,716pcm","6/51 Ruskin Street, Elwood VIC 3184",House,new,1716.0,"(-37.8815276, 144.9812312)",-37.8815276,144.9812312
338,338,338,338,338,338,338,338,338,338,338,338,339,16088687,440.0,4,2,2,$440,"35 Delias Road, Tarneit VIC 3029",House,new,1906.0,"(-37.8487835, 144.659027)",-37.8487835,144.659027
339,339,339,339,339,339,339,339,339,339,339,339,340,16088682,400.0,3,2,4,$400 per week,"7 Yosemite Street, Truganina VIC 3029",House,new,1738.0,"(-37.7587205, 144.6945938)",-37.7587205,144.6945938
340,340,340,340,340,340,340,340,340,340,340,340,341,16088681,360.0,3,2,5,$360 per week,"27 Stenson Road, Kealba VIC 3021",House,new,1564.0,"(-37.7393665, 144.8241904)",-37.7393665,144.8241904
341,341,341,341,341,341,341,341,341,341,341,341,342,16088678,630.0,3,2,1,$630 per week,"724 Inkerman Road, Caulfield North VIC 3161",Townhouse,new,2738.0,"(-37.8688278, 145.0190668)",-37.8688278,145.0190668
342,342,342,342,342,342,342,342,342,342,342,342,343,16088677,600.0,3,2,2,$600.00,"2/5 Moresby Street, Mitcham VIC 3132",Apartment / Unit / Flat,new,2607.0,"(-37.8069733, 145.1987855)",-37.8069733,145.1987855
343,343,343,343,343,343,343,343,343,343,343,343,344,15218457,390.0,4,2,2,$390,"10 Gilfillan Circuit, Thornhill Park VIC 3335",House,recentlyUpdated,1695.0,"(-37.7125692, 144.6316107)",-37.7125692,144.6316107
344,344,344,344,344,344,344,344,344,344,344,344,345,16088656,900.0,4,3,0,$900,"185 Cecil Street, Williamstown VIC 3016",House,new,3911.0,"(-37.8612571, 144.8998407)",-37.8612571,144.8998407
345,345,345,345,345,345,345,345,345,345,345,345,346,15816055,750.0,3,2,4,$750,"110 Palm Tree Drive, Safety Beach VIC 3936",House,recentlyUpdated,3258.0,"(-38.3202365, 144.9983191)",-38.3202365,144.9983191
346,346,346,346,346,346,346,346,346,346,346,346,347,11761425,550.0,2,1,2,$550 per week,"27/4 Victoria Street, Windsor VIC 3181",Apartment / Unit / Flat,recentlyUpdated,2390.0,"(-37.8525128, 144.9941068)",-37.8525128,144.9941068
347,347,347,347,347,347,347,347,347,347,347,347,348,15344204,420.0,3,2,2,$420,"30 Mulberry Pass, Craigieburn VIC 3064",House,recentlyUpdated,1825.0,"(-37.5874019, 144.9206329)",-37.5874019,144.9206329
348,348,348,348,348,348,348,348,348,348,348,348,349,15326673,650.0,2,1,0,$650 per week,"4306/135 A'Beckett Street, Melbourne VIC 3000",Apartment / Unit / Flat,recentlyUpdated,2825.0,"(-37.8096114, 144.9595749)",-37.8096114,144.9595749
349,349,349,349,349,349,349,349,349,349,349,349,350,16088641,480.0,2,1,1,$480 weekly,"7/10 Austin Avenue, Elwood VIC 3184",Apartment / Unit / Flat,new,2086.0,"(-37.8813561, 144.9916152)",-37.8813561,144.9916152
350,350,350,350,350,350,350,350,350,350,350,350,351,16088636,450.0,2,1,1,$450 Per Week,"4/24 Bear Street, Mordialloc VIC 3195",Apartment / Unit / Flat,new,1955.0,"(-38.0058678, 145.091642)",-38.0058678,145.091642
351,351,351,351,351,351,351,351,351,351,351,351,352,14629740,430.0,3,1,1,$430,"10 Hendley Street, Woodend VIC 3442",House,recentlyUpdated,1869.0,"(-37.3550208, 144.5201801)",-37.3550208,144.5201801
352,352,352,352,352,352,352,352,352,352,352,352,353,16088632,410.0,3,1,2,$410pw / $1782pcm,"11 Montrose Street, Warragul VIC 3820",House,new,1782.0,"(-38.1447819, 145.9409241)",-38.1447819,145.9409241
353,353,353,353,353,353,353,353,353,353,353,353,354,15231552,295.0,2,1,1,$295pw,"3/507 Howitt Street, Soldiers Hill VIC 3350",House,recentlyUpdated,1278.0,"(-37.5425613, 143.8505013)",-37.5425613,143.8505013
354,354,354,354,354,354,354,354,354,354,354,354,355,16012458,360.0,3,1,5,$360,"108 Kookaburra Avenue, Werribee VIC 3030",House,recentlyUpdated,1564.0,"(-37.8853085, 144.6813783)",-37.8853085,144.6813783
355,355,355,355,355,355,355,355,355,355,355,355,356,16088630,460.0,3,1,2,$460,"1/9 Coromandel Crescent, Knoxfield VIC 3180",Apartment / Unit / Flat,new,1999.0,"(-37.886865, 145.2526905)",-37.886865,145.2526905
356,356,356,356,356,356,356,356,356,356,356,356,357,13628241,380.0,1,1,1,$380 per Week,"409/2 Hopkins Street, Footscray VIC 3011",Apartment / Unit / Flat,recentlyUpdated,1651.0,"(-37.8002384, 144.9040795)",-37.8002384,144.9040795
357,357,357,357,357,357,357,357,357,357,357,357,358,16088625,500.0,2,1,1,$500 weekly,"2/5 Gilsland Road, Murrumbeena VIC 3163",Apartment / Unit / Flat,new,2173.0,"(-37.8885513, 145.0753283)",-37.8885513,145.0753283
358,358,358,358,358,358,358,358,358,358,358,358,359,15723110,675.0,3,2,2,$675 p.w.,"58 Haversham Avenue, Wheelers Hill VIC 3150",House,recentlyUpdated,2933.0,"(-37.9135358, 145.2024718)",-37.9135358,145.2024718
359,359,359,359,359,359,359,359,359,359,359,359,360,16088621,1500.0,5,3,4,$1500 per week,"93 Spring Valley Drive, Torquay VIC 3228",House,new,6517.0,"(-38.3327427, 144.3100386)",-38.3327427,144.3100386
360,360,360,360,360,360,360,360,360,360,360,360,361,16088619,470.0,3,1,2,$470 per week,"3/1 Leamington Street, Reservoir VIC 3073",Townhouse,new,2042.0,"(-37.7127543, 145.0045671)",-37.7127543,145.0045671
361,361,361,361,361,361,361,361,361,361,361,361,362,16088618,610.0,2,2,2,$610 per week,"416/480 Riversdale Road, Hawthorn East VIC 3123",Apartment / Unit / Flat,new,2651.0,"(-37.8313755, 145.055582)",-37.8313755,145.055582
362,362,362,362,362,362,362,362,362,362,362,362,363,16088615,500.0,2,1,2,$500.00,"201/22-24 Warleigh Grove, Brighton VIC 3186",Apartment / Unit / Flat,new,2173.0,"(-37.9042479, 145.0034882)",-37.9042479,145.0034882
363,363,363,363,363,363,363,363,363,363,363,363,364,16088610,550.0,4,2,2,$550 per week,"49 Margot Avenue, Doncaster VIC 3108",House,new,2390.0,"(-37.7723011, 145.1288588)",-37.7723011,145.1288588
364,364,364,364,364,364,364,364,364,364,364,364,365,15657634,410.0,2,1,2,$410,"1/22 Clapham Road, Hughesdale VIC 3166",Apartment / Unit / Flat,recentlyUpdated,1782.0,"(-37.8946411, 145.0836012)",-37.8946411,145.0836012
365,365,365,365,365,365,365,365,365,365,365,365,366,16088598,950.0,5,3,2,$950pw/$4128pcm,"14 & 14A Milfay Avenue, Moonee Ponds VIC 3039",House,new,4128.0,"(-37.7683173, 144.9196236)",-37.7683173,144.9196236
366,366,366,366,366,366,366,366,366,366,366,366,367,16088597,395.0,3,1,3,$395,"32 Jeffers Street, Noble Park VIC 3174",House,new,1716.0,"(-37.9641362, 145.1896056)",-37.9641362,145.1896056
367,367,367,367,367,367,367,367,367,367,367,367,368,8643256,260.0,1,1,0,$260 per week,"105/24 Barkly Place, Carlton VIC 3053",Studio,recentlyUpdated,1130.0,"(-37.8033086, 144.9615678)",-37.8033086,144.9615678
368,368,368,368,368,368,368,368,368,368,368,368,369,16088588,325.0,1,1,1,$325.00,"606/7 Balcombe Road, Mentone VIC 3194",Apartment / Unit / Flat,new,1412.0,"(-37.9813288, 145.0653916)",-37.9813288,145.0653916
369,369,369,369,369,369,369,369,369,369,369,369,370,14907112,370.0,2,1,1,$370,"4/7-9 James Avenue, Kew VIC 3101",Apartment / Unit / Flat,recentlyUpdated,1608.0,"(-37.8013322, 145.0383834)",-37.8013322,145.0383834
370,370,370,370,370,370,370,370,370,370,370,370,371,16088581,260.0,1,1,1,$260.00,"11/52 Pender Street, Thornbury VIC 3071",Apartment / Unit / Flat,new,1130.0,"(-37.7538734, 145.0019844)",-37.7538734,145.0019844
371,371,371,371,371,371,371,371,371,371,371,371,372,16088576,430.0,3,2,3,$430 pw,"20 Conteve Way, Truganina VIC 3029",House,new,1868.0,"(-37.8471752, 144.7325376)",-37.8471752,144.7325376
372,372,372,372,372,372,372,372,372,372,372,372,373,16088575,350.0,2,1,2,$350 per week,"1/92 Thackeray Road, Reservoir VIC 3073",Apartment / Unit / Flat,new,1521.0,"(-37.7212464, 145.0112715)",-37.7212464,145.0112715
373,373,373,373,373,373,373,373,373,373,373,373,374,16088571,495.0,2,1,1,$495 pw,"9/65 Westbury Street, St Kilda East VIC 3183",Apartment / Unit / Flat,new,2151.0,"(-37.8608937, 144.996956)",-37.8608937,144.996956
374,374,374,374,374,374,374,374,374,374,374,374,375,16088569,400.0,3,2,2,$400 pw,"3a Boronia Street, Drouin VIC 3818",Apartment / Unit / Flat,new,1738.0,"(-38.132763, 145.8466666)",-38.132763,145.8466666
375,375,375,375,375,375,375,375,375,375,375,375,376,16088568,400.0,2,1,0,$400 pw,"2/36 Barkly Street, St Kilda VIC 3182",Apartment / Unit / Flat,new,1738.0,"(-37.8621532, 144.982136)",-37.8621532,144.982136
376,376,376,376,376,376,376,376,376,376,376,376,377,16088565,480.0,2,1,1,$480,"4/472 Canterbury Road, Forest Hill VIC 3131",Apartment / Unit / Flat,new,2086.0,"(-37.8342195, 145.1679647)",-37.8342195,145.1679647
377,377,377,377,377,377,377,377,377,377,377,377,378,16088563,385.0,2,1,1,$385 weekly,"2/28 Shepparson Avenue, Carnegie VIC 3163",Apartment / Unit / Flat,new,1673.0,"(-37.8893241, 145.058112)",-37.8893241,145.058112
378,378,378,378,378,378,378,378,378,378,378,378,379,16088559,340.0,2,1,1,$340.00,"1002D Macarthur Street, Lake Wendouree VIC 3350",House,new,1473.0,"(-37.5495637, 143.8460361)",-37.5495637,143.8460361
379,379,379,379,379,379,379,379,379,379,379,379,380,16088557,440.0,1,1,1,$440 per week,"106/119 Turner Street, Abbotsford VIC 3067",Apartment / Unit / Flat,new,1912.0,"(-37.7993152, 144.9975063)",-37.7993152,144.9975063
380,380,380,380,380,380,380,380,380,380,380,380,381,16088556,580.0,2,1,0,$580 per week,"17 Powell Street, South Yarra VIC 3141",House,new,2520.0,"(-37.8406561, 144.9893683)",-37.8406561,144.9893683
381,381,381,381,381,381,381,381,381,381,381,381,382,16088555,590.0,2,1,0,$590 PER WEEK,"382 Rae Street, Fitzroy North VIC 3068",Terrace,new,2564.0,"(-37.7834050030303, 144.98030969393938)",-37.7834050030303,144.98030969393938
382,382,382,382,382,382,382,382,382,382,382,382,383,16088553,355.0,2,1,3,$355 Per Week,"1/9 Alexander Street, Cranbourne VIC 3977",Apartment / Unit / Flat,new,1543.0,"(-38.1043347, 145.280998)",-38.1043347,145.280998
383,383,383,383,383,383,383,383,383,383,383,383,384,16088551,1100.0,3,2,0,$1100.00 per week,"19 McGregor Street, Middle Park VIC 3206",House,new,5500.0,"(-37.85214185, 144.96542)",-37.85214185,144.96542
384,384,384,384,384,384,384,384,384,384,384,384,385,15283895,370.0,2,1,1,$370,"18/97-99 Epsom Road, Ascot Vale VIC 3032",Apartment / Unit / Flat,recentlyUpdated,1608.0,"(-37.7733937, 144.9078944)",-37.7733937,144.9078944
385,385,385,385,385,385,385,385,385,385,385,385,386,16088549,450.0,5,2,2,$450 per week,"97 Main Road, Riddells Creek VIC 3431",House,new,1955.0,"(-37.4589017, 144.6815721)",-37.4589017,144.6815721
386,386,386,386,386,386,386,386,386,386,386,386,387,16088547,800.0,3,2,0,$800 per week,"1 Coventry Place, South Melbourne VIC 3205",Townhouse,new,3476.0,"(-37.83272275, 144.95413915)",-37.83272275,144.95413915
387,387,387,387,387,387,387,387,387,387,387,387,388,16088546,550.0,2,2,1,$550 per week,"104/285 City Road, Southbank VIC 3006",Apartment / Unit / Flat,new,2390.0,"(-37.823816, 144.9627077)",-37.823816,144.9627077
388,388,388,388,388,388,388,388,388,388,388,388,389,16088544,440.0,2,1,1,$440.00,"2/34 Darbyshire Road, Mount Waverley VIC 3149",Apartment / Unit / Flat,new,1912.0,"(-37.8605104, 145.120006)",-37.8605104,145.120006
389,389,389,389,389,389,389,389,389,389,389,389,390,16088542,275.0,1,1,1,$275.00,"3/65 Kellett Street, Northcote VIC 3070",Apartment / Unit / Flat,new,1195.0,"(-37.7668856, 145.0052734)",-37.7668856,145.0052734
390,390,390,390,390,390,390,390,390,390,390,390,391,16088538,460.0,4,2,2,$460,"26 Telopea Road, Craigieburn VIC 3064",House,new,1999.0,"(-37.5742042, 144.8961219)",-37.5742042,144.8961219
391,391,391,391,391,391,391,391,391,391,391,391,392,16088537,350.0,3,2,1,$350 per week,"1/208 Heaths Road, Hoppers Crossing VIC 3029",Apartment / Unit / Flat,new,1521.0,"(-37.8787578, 144.6947716)",-37.8787578,144.6947716
392,392,392,392,392,392,392,392,392,392,392,392,393,16088536,300.0,3,1,0,$300.00,"103 Darling Street, Redan VIC 3350",House,new,1300.0,"(-37.5739696, 143.8325501)",-37.5739696,143.8325501
393,393,393,393,393,393,393,393,393,393,393,393,394,13313001,570.0,2,2,1,$570,"1005D/21 Robert Street, Collingwood VIC 3066",Apartment / Unit / Flat,recentlyUpdated,2477.0,"(-37.8056439, 144.9867742)",-37.8056439,144.9867742
394,394,394,394,394,394,394,394,394,394,394,394,395,16088527,680.0,2,2,1,$680.00,"408/5 Union Street, Brunswick VIC 3056",Apartment / Unit / Flat,new,2955.0,"(-37.7737375, 144.956797)",-37.7737375,144.956797
395,395,395,395,395,395,395,395,395,395,395,395,396,16088525,500.0,2,1,2,$500.00,"1/2a Malvern Street, Vermont VIC 3133",Apartment / Unit / Flat,new,2173.0,"(-37.832418, 145.1975021)",-37.832418,145.1975021
396,396,396,396,396,396,396,396,396,396,396,396,397,14551703,380.0,2,2,1,$380,"2/9a Norfolk Street, North Bendigo VIC 3550",House,recentlyUpdated,1647.0,"(-36.7456706, 144.2790194)",-36.7456706,144.2790194
397,397,397,397,397,397,397,397,397,397,397,397,398,16088516,750.0,2,2,0,$750,"6007/135 A'beckett Street, Melbourne VIC 3000",House,new,3250.0,"(-37.8096114, 144.9595749)",-37.8096114,144.9595749
398,398,398,398,398,398,398,398,398,398,398,398,399,16088512,450.0,2,1,1,$450 per week,"1/532 Highbury Road, Glen Waverley VIC 3150",Apartment / Unit / Flat,new,1955.0,"(-37.8602473, 145.15315)",-37.8602473,145.15315
399,399,399,399,399,399,399,399,399,399,399,399,400,16088511,660.0,2,1,1,$660/$2868pcm,"51A Buckingham Street, Richmond VIC 3121",Townhouse,new,2868.0,"(-37.8138709, 145.0024239)",-37.8138709,145.0024239
400,400,400,400,400,400,400,400,400,400,400,400,401,16088510,595.0,2,2,1,$595pw / $2585pcm,"16B Albert Street, Brunswick East VIC 3057",Townhouse,new,2585.0,"(-37.7705086, 144.9773286)",-37.7705086,144.9773286
401,401,401,401,401,401,401,401,401,401,401,401,402,16088509,1100.0,3,2,2,"$1,100.00","601/91 Darebin St, Heidelberg VIC 3084",Apartment / Unit / Flat,new,4780.0,"(-37.7546529, 145.070114)",-37.7546529,145.070114
402,402,402,402,402,402,402,402,402,402,402,402,403,14457416,420.0,3,2,2,"$420 pw / $1,825 pcm","10 Windeatt Court, Mill Park VIC 3082",House,recentlyUpdated,1825.0,Requires Manual Inspection,R,e
403,403,403,403,403,403,403,403,403,403,403,403,404,16088507,500.0,4,2,2,$500 per week,"34 Ironstone Crescent, Clyde VIC 3978",House,new,2173.0,Requires Manual Inspection,R,e
404,404,404,404,404,404,404,404,404,404,404,404,405,16088508,540.0,3,1,2,$540 per week,"2/21 Stinton Avenue, Newtown VIC 3220",Townhouse,new,2346.0,"(-38.1544467, 144.336496)",-38.1544467,144.336496
405,405,405,405,405,405,405,405,405,405,405,405,406,16088506,565.0,2,2,2,FULLY FURNISHED - $565 per week,"52/1 Sandilands Street, South Melbourne VIC 3205",Apartment / Unit / Flat,new,2455.0,"(-37.8368626, 144.9685713)",-37.8368626,144.9685713
406,406,406,406,406,406,406,406,406,406,406,406,407,16088501,380.0,3,1,2,$380,"20 Albert Street, Shepparton VIC 3630",House,new,1646.0,"(-36.3894129, 145.4006496)",-36.3894129,145.4006496
407,407,407,407,407,407,407,407,407,407,407,407,408,16088499,595.0,3,1,0,$595pw,"58 Charles Street, Seddon VIC 3011",House,new,2585.0,"(-37.806175, 144.8879215)",-37.806175,144.8879215
408,408,408,408,408,408,408,408,408,408,408,408,409,14768872,320.0,2,1,1,$320 Per Week,"Unit 1/39 Grace St, Melton South VIC 3338",Apartment / Unit / Flat,recentlyUpdated,1390.0,"(-37.6978683, 144.5708738)",-37.6978683,144.5708738
409,409,409,409,409,409,409,409,409,409,409,409,410,16088496,425.0,1,1,1,$425 per week,"7/53-59 Millswyn Street, South Yarra VIC 3141",Apartment / Unit / Flat,new,1847.0,"(-37.8353713, 144.9804047)",-37.8353713,144.9804047
410,410,410,410,410,410,410,410,410,410,410,410,411,16088494,400.0,3,1,1,$400 per week,"1/284 Camp Road, Broadmeadows VIC 3047",Townhouse,new,1738.0,"(-37.68602, 144.9259122)",-37.68602,144.9259122
411,411,411,411,411,411,411,411,411,411,411,411,412,16088489,380.0,3,2,1,$380 per week,"41 Murray Street, Mirboo North VIC 3871",House,new,1646.0,"(-38.4039251, 146.1673432)",-38.4039251,146.1673432
412,412,412,412,412,412,412,412,412,412,412,412,413,14613768,410.0,1,1,1,$410,"404B/3 Brewery Lane, Collingwood VIC 3066",Apartment / Unit / Flat,recentlyUpdated,1782.0,"(-37.8059714, 144.9868932)",-37.8059714,144.9868932
413,413,413,413,413,413,413,413,413,413,413,413,414,16088486,450.0,4,2,2,$450 per week,"19 Thornton Avenue, St Leonards VIC 3223",House,new,1955.0,"(-38.1798395, 144.7053663)",-38.1798395,144.7053663
414,414,414,414,414,414,414,414,414,414,414,414,415,16088479,380.0,1,1,1,$380.00,"501/14-20 Nicholson Street, Coburg VIC 3058",Apartment / Unit / Flat,new,1651.0,"(-37.7554383, 144.9754964)",-37.7554383,144.9754964
415,415,415,415,415,415,415,415,415,415,415,415,416,16088477,725.0,2,1,0,$725 Per Week,"8/32-34 Adams Street, South Yarra VIC 3141",Apartment / Unit / Flat,new,3150.0,"(-37.8355577, 144.9775567)",-37.8355577,144.9775567
416,416,416,416,416,416,416,416,416,416,416,416,417,16088476,380.0,3,2,2,$380 per week,"6 Park Orchard Drive, Pakenham VIC 3810",House,new,1651.0,"(-38.0752373, 145.4471607)",-38.0752373,145.4471607
417,417,417,417,417,417,417,417,417,417,417,417,418,16088475,370.0,3,2,2,$370 Per Week,"137 Riverside Avenue, Mildura VIC 3500",House,new,1603.0,"(-34.1782038, 142.1412486)",-34.1782038,142.1412486
418,418,418,418,418,418,418,418,418,418,418,418,419,16088473,430.0,3,2,2,$430 Per Week,"8/19 Cotswold Crescent, Officer VIC 3809",Apartment / Unit / Flat,new,1868.0,"(-38.0574253, 145.4018181)",-38.0574253,145.4018181
419,419,419,419,419,419,419,419,419,419,419,419,420,16088470,600.0,3,2,2,$600,"135 Boland Drive, Lyndhurst VIC 3975",House,new,2608.0,"(-38.0709938, 145.248148)",-38.0709938,145.248148
420,420,420,420,420,420,420,420,420,420,420,420,421,16088463,450.0,2,0,1,$450,"86 DEVONSHIRE STREET, West Footscray VIC 3012",House,new,1950.0,"(-37.7902767, 144.8674298)",-37.7902767,144.8674298
421,421,421,421,421,421,421,421,421,421,421,421,422,16088456,450.0,2,1,1,$450 per week,"2/52 Bowen Road, Doncaster East VIC 3109",House,new,1955.0,"(-37.8003302, 145.1632854)",-37.8003302,145.1632854
422,422,422,422,422,422,422,422,422,422,422,422,423,16088451,420.0,2,1,1,$420pw,"3/13 Browning Street, Kilsyth VIC 3137",House,new,1825.0,"(-37.8025323, 145.3044518)",-37.8025323,145.3044518
423,423,423,423,423,423,423,423,423,423,423,423,424,16088449,390.0,1,1,1,$390.00,"G3/2a Henry Street, Windsor VIC 3181",Apartment / Unit / Flat,new,1695.0,"(-37.854732, 144.9880608)",-37.854732,144.9880608
424,424,424,424,424,424,424,424,424,424,424,424,425,16088448,850.0,4,2,2,$850.00,"32 Fourth Street, Parkdale VIC 3195",House,new,3693.0,"(-37.9850659, 145.0765935)",-37.9850659,145.0765935
425,425,425,425,425,425,425,425,425,425,425,425,426,16088447,375.0,2,1,2,$375.00,"2/182 Nepean Highway, Aspendale VIC 3195",Apartment / Unit / Flat,new,1629.0,"(-38.0199275, 145.0969354)",-38.0199275,145.0969354
426,426,426,426,426,426,426,426,426,426,426,426,427,16088445,450.0,3,2,2,$450 per week,"96 Regatta Drive, Craigieburn VIC 3064",Townhouse,new,1955.0,"(-37.5882567, 144.9097708)",-37.5882567,144.9097708
427,427,427,427,427,427,427,427,427,427,427,427,428,14767250,370.0,2,1,1,$370 per week,"3/3 Raeburn Street, Pascoe Vale VIC 3044",Villa,recentlyUpdated,1608.0,"(-37.7285608, 144.9445652)",-37.7285608,144.9445652
428,428,428,428,428,428,428,428,428,428,428,428,429,16088441,675.0,2,2,1,$675 per week,"PO9P/191 Powlett Street, East Melbourne VIC 3002",Apartment / Unit / Flat,new,2933.0,"(-37.8120553, 144.9860149)",-37.8120553,144.9860149
429,429,429,429,429,429,429,429,429,429,429,429,430,16088439,410.0,1,1,1,$410,"803/6 St Kilda Road, St Kilda VIC 3182",Apartment / Unit / Flat,new,1782.0,"(-37.8611312, 144.9843436)",-37.8611312,144.9843436
430,430,430,430,430,430,430,430,430,430,430,430,431,16088434,300.0,1,1,0,$300 weekly,"1102A Glen Huntly Road, Glen Huntly VIC 3163",Apartment / Unit / Flat,new,1304.0,"(-37.8896462, 145.0441073)",-37.8896462,145.0441073
431,431,431,431,431,431,431,431,431,431,431,431,432,15241192,420.0,3,2,2,$420,"27 Dempster Drive, Craigieburn VIC 3064",House,recentlyUpdated,1825.0,"(-37.5816191, 144.909187)",-37.5816191,144.909187
432,432,432,432,432,432,432,432,432,432,432,432,433,16088431,680.0,3,1,1,$680pw / $2955pcm,"378 Albion Street, Brunswick West VIC 3055",House,new,2955.0,"(-37.75918755, 144.9482355)",-37.75918755,144.9482355
433,433,433,433,433,433,433,433,433,433,433,433,434,16088426,720.0,3,2,0,$720 per week,"2/15 Parring Road, Balwyn VIC 3103",Townhouse,new,3129.0,"(-37.8139475, 145.090677)",-37.8139475,145.090677
434,434,434,434,434,434,434,434,434,434,434,434,435,16088423,310.0,2,1,1,$310 pw,"9/62 Westbury Street, St Kilda East VIC 3183",Apartment / Unit / Flat,new,1347.0,"(-37.8608937, 144.996956)",-37.8608937,144.996956
435,435,435,435,435,435,435,435,435,435,435,435,436,16088421,750.0,2,2,1,$750.00 per week,"48/183 City Road, Southbank VIC 3006",Apartment / Unit / Flat,new,3259.0,"(-37.824912749999996, 144.962019914163)",-37.824912749999996,144.962019914163
436,436,436,436,436,436,436,436,436,436,436,436,437,14650614,665.0,2,1,1,$665 per week,"1/94 Roseneath St, Clifton Hill VIC 3068",Apartment / Unit / Flat,recentlyUpdated,2890.0,"(-37.7923997, 144.9945298)",-37.7923997,144.9945298
437,437,437,437,437,437,437,437,437,437,437,437,438,16088420,410.0,1,1,0,$410 per week,"1610/27 Little Collins Street, Melbourne VIC 3000",House,new,1782.0,"(-37.8173936, 144.9560988)",-37.8173936,144.9560988
438,438,438,438,438,438,438,438,438,438,438,438,439,16088417,420.0,2,1,1,$420 per week,"2/14 Walter Street, Mitcham VIC 3132",Apartment / Unit / Flat,new,1825.0,"(-37.8176806, 145.2059108)",-37.8176806,145.2059108
439,439,439,439,439,439,439,439,439,439,439,439,440,16088412,400.0,3,2,2,$400 pw,"3 Penshurst Court, Hillside VIC 3037",House,new,1738.0,"(-37.6981154, 144.7499244)",-37.6981154,144.7499244
440,440,440,440,440,440,440,440,440,440,440,440,441,16088411,560.0,3,2,1,$560.00,"5 South Road, Woodend VIC 3442",House,new,2433.0,"(-37.3697257, 144.5309754)",-37.3697257,144.5309754
441,441,441,441,441,441,441,441,441,441,441,441,442,16088408,540.0,4,2,2,$540 pw,"11 Marsh Mays Road, Cairnlea VIC 3023",House,new,2346.0,Requires Manual Inspection,R,e
442,442,442,442,442,442,442,442,442,442,442,442,443,16088405,300.0,2,1,0,$300 weekly,"2/49 Presidents Avenue, Ocean Grove VIC 3226",House,new,1304.0,"(-38.266249, 144.5224716)",-38.266249,144.5224716
443,443,443,443,443,443,443,443,443,443,443,443,444,16088390,520.0,4,2,2,$520,"11 Lowerson Way, Wodonga VIC 3690",House,new,2080.0,"(-36.1454768, 146.8957654)",-36.1454768,146.8957654
444,444,444,444,444,444,444,444,444,444,444,444,445,15358699,460.0,4,2,4,$460,"33 Stony Brook Way, Truganina VIC 3029",House,recentlyUpdated,1993.0,"(-37.83981, 144.7102712)",-37.83981,144.7102712
445,445,445,445,445,445,445,445,445,445,445,445,446,16088385,650.0,3,2,2,"$650pw/$2,824pcm","705/148 Wells Street, South Melbourne VIC 3205",Apartment / Unit / Flat,new,2824.0,"(-37.83101885, 144.9692492325907)",-37.83101885,144.9692492325907
446,446,446,446,446,446,446,446,446,446,446,446,447,16088383,650.0,3,1,2,$650,"33 Swanson Crescent, Chadstone VIC 3148",Townhouse,new,2825.0,"(-37.8882859, 145.0979534)",-37.8882859,145.0979534
447,447,447,447,447,447,447,447,447,447,447,447,448,16088380,130.0,1,1,1,$130 per week,"2/46 KING STREET, Rainbow VIC 3424",Apartment / Unit / Flat,new,564.0,"(-35.8951841, 141.9953448)",-35.8951841,141.9953448
448,448,448,448,448,448,448,448,448,448,448,448,449,16088377,480.0,3,2,3,$480 per week,"683 Ferntree Gully Road, Glen Waverley VIC 3150",House,new,2086.0,"(-37.9040435, 145.1686421)",-37.9040435,145.1686421
449,449,449,449,449,449,449,449,449,449,449,449,450,16088373,430.0,3,1,2,$430 per week,"21 Bickley Avenue, Thomastown VIC 3074",House,new,1868.0,"(-37.6800716, 145.0401901)",-37.6800716,145.0401901
450,450,450,450,450,450,450,450,450,450,450,450,451,16088371,240.0,2,1,2,$240,"1/310 Buffalo River Road, Myrtleford VIC 3737",Apartment / Unit / Flat,new,1040.0,"(-36.6073473, 146.6859752)",-36.6073473,146.6859752
451,451,451,451,451,451,451,451,451,451,451,451,452,16088368,580.0,3,2,2,$580 per week,"12/1 Eastway Avenue, Donvale VIC 3111",Townhouse,new,2520.0,"(-37.8017686, 145.1781739)",-37.8017686,145.1781739
452,452,452,452,452,452,452,452,452,452,452,452,453,14682810,315.0,2,1,1,$315 per week,"3/11 Fishburn Grove, Melton West VIC 3337",Apartment / Unit / Flat,recentlyUpdated,1369.0,Requires Manual Inspection,R,e
453,453,453,453,453,453,453,453,453,453,453,453,454,14381082,580.0,2,1,0,$580,"7 Piera Street, Brunswick East VIC 3057",House,recentlyUpdated,2520.0,"(-37.77403983571429, 144.97193034285715)",-37.77403983571429,144.97193034285715
454,454,454,454,454,454,454,454,454,454,454,454,455,16088365,250.0,1,1,1,$250,"97 Wimmera Street, Dimboola VIC 3414",House,new,1083.0,"(-36.4555567, 142.027557)",-36.4555567,142.027557
455,455,455,455,455,455,455,455,455,455,455,455,456,16088363,470.0,3,1,3,$470,"72 Elton Road, Ferntree Gully VIC 3156",House,new,2042.0,"(-37.89026535, 145.26516849176204)",-37.89026535,145.26516849176204
456,456,456,456,456,456,456,456,456,456,456,456,457,16088350,430.0,2,1,1,$430pw/$1868pcm,"5/31-33 Olive Street, Reservoir VIC 3073",Apartment / Unit / Flat,new,1868.0,"(-37.7178306, 145.0040637)",-37.7178306,145.0040637
457,457,457,457,457,457,457,457,457,457,457,457,458,16088338,440.0,2,1,1,$440,"3/31 Albenca Street, Mentone VIC 3194",Apartment / Unit / Flat,new,1912.0,"(-37.9821969, 145.0736844)",-37.9821969,145.0736844
458,458,458,458,458,458,458,458,458,458,458,458,459,16088329,400.0,2,1,1,$400 per week,"12 Robinson Grove, Bulleen VIC 3105",House,new,1738.0,"(-37.7740581, 145.0918214)",-37.7740581,145.0918214
459,459,459,459,459,459,459,459,459,459,459,459,460,16088328,480.0,2,1,2,$480 Per Week,"3/21 Romawi Street, Altona VIC 3018",House,new,2080.0,"(-37.8639721, 144.8254868)",-37.8639721,144.8254868
460,460,460,460,460,460,460,460,460,460,460,460,461,16088325,450.0,2,1,2,$450 per week,"2/7 Rudd Avenue, Torquay VIC 3228",Apartment / Unit / Flat,new,1955.0,"(-38.3363992, 144.3186361)",-38.3363992,144.3186361
461,461,461,461,461,461,461,461,461,461,461,461,462,16088319,440.0,3,1,0,$440.00,"38 Virginia Street, Newtown VIC 3220",House,new,1912.0,"(-38.14967035, 144.34913886568805)",-38.14967035,144.34913886568805
462,462,462,462,462,462,462,462,462,462,462,462,463,16088318,500.0,4,2,3,$500 Per Week,"41 Drysdale Avenue, Hamlyn Heights VIC 3215",House,new,2173.0,"(-38.1235315, 144.3264086)",-38.1235315,144.3264086
463,463,463,463,463,463,463,463,463,463,463,463,464,16088317,380.0,2,1,1,$380 per week,"2/120 Suffolk Street, Maidstone VIC 3012",Townhouse,new,1651.0,"(-37.7904472, 144.8795524)",-37.7904472,144.8795524
464,464,464,464,464,464,464,464,464,464,464,464,465,16088314,460.0,4,2,2,$460.00,"7 Heathcote Drive, Lucas VIC 3350",House,new,1993.0,"(-37.5484118, 143.77087)",-37.5484118,143.77087
465,465,465,465,465,465,465,465,465,465,465,465,466,16088313,320.0,1,1,1,$320,"8/39 Heller Street, Brunswick West VIC 3055",Apartment / Unit / Flat,new,1386.0,"(-37.7744226, 144.9466812)",-37.7744226,144.9466812
466,466,466,466,466,466,466,466,466,466,466,466,467,16088312,1000.0,4,1,2,"$1,000.00","51 Thomas Street, Windsor VIC 3181",House,new,4345.0,"(-37.852282, 144.9908601)",-37.852282,144.9908601
467,467,467,467,467,467,467,467,467,467,467,467,468,16088310,780.0,5,3,3,$780 weekly,"15 Everest Cres, Olinda VIC 3788",House,new,3389.0,"(-37.8559771, 145.364118)",-37.8559771,145.364118
468,468,468,468,468,468,468,468,468,468,468,468,469,16088308,320.0,1,1,1,$320 Per Week,"6/48 Woolton Avenue, Thornbury VIC 3071",Apartment / Unit / Flat,new,1390.0,"(-37.7609959, 144.9960191)",-37.7609959,144.9960191
469,469,469,469,469,469,469,469,469,469,469,469,470,16088301,500.0,3,1,2,$500,"181 Jacksons Road, Noble Park North VIC 3174",House,new,2173.0,"(-37.9563505, 145.191426)",-37.9563505,145.191426
470,470,470,470,470,470,470,470,470,470,470,470,471,15952597,650.0,4,2,2,$650,"1/17 Mirriam Av, Capel Sound VIC 3940",House,recentlyUpdated,2824.0,"(-38.36444635, 144.8800586519361)",-38.36444635,144.8800586519361
471,471,471,471,471,471,471,471,471,471,471,471,472,16088292,380.0,3,1,1,"$380pw / $1,651pcm","17 Major Road, Fawkner VIC 3060",House,new,1651.0,"(-37.7071357, 144.9658513)",-37.7071357,144.9658513
472,472,472,472,472,472,472,472,472,472,472,472,473,16088288,1100.0,4,3,2,"$1,100.00","55 Lincoln Road, Essendon VIC 3040",House,new,6980.0,"(-37.7460746, 144.9097847)",-37.7460746,144.9097847
473,473,473,473,473,473,473,473,473,473,473,473,474,15910660,460.0,3,1,1,$460,"1/61 Mahoneys Road, Riddells Creek VIC 3431",Apartment / Unit / Flat,recentlyUpdated,1998.0,"(-37.4594536, 144.6785472)",-37.4594536,144.6785472
474,474,474,474,474,474,474,474,474,474,474,474,475,16088286,470.0,3,2,2,$470.00,"75 Noble Street, Newtown VIC 3220",Townhouse,new,2042.0,"(-38.1542594, 144.34636882455882)",-38.1542594,144.34636882455882
475,475,475,475,475,475,475,475,475,475,475,475,476,12311093,560.0,2,1,1,$560.00 per week,"127 Dawson Street, Brunswick West VIC 3055",House,recentlyUpdated,2433.0,"(-37.7694302, 144.9438375)",-37.7694302,144.9438375
476,476,476,476,476,476,476,476,476,476,476,476,477,16088278,850.0,3,2,2,$850.00,"2/91 Brighton Road, Elwood VIC 3184",Townhouse,new,3694.0,"(-37.8767306, 144.9924433)",-37.8767306,144.9924433
477,477,477,477,477,477,477,477,477,477,477,477,478,14673677,400.0,1,1,0,$400 Per Week,"541/57 Spencer Street, Melbourne VIC 3000",Apartment / Unit / Flat,recentlyUpdated,1738.0,"(-37.8131357, 144.95151)",-37.8131357,144.95151
478,478,478,478,478,478,478,478,478,478,478,478,479,16088277,395.0,3,1,0,$395.00 pw,"2 Eycot Street, Kilsyth South VIC 3137",House,new,1716.0,"(-37.8374746, 145.3027978)",-37.8374746,145.3027978
479,479,479,479,479,479,479,479,479,479,479,479,480,16088274,460.0,3,1,2,$460 weekly,"18 Heather Grove, Springvale VIC 3171",House,new,1999.0,"(-37.9561681, 145.1416797)",-37.9561681,145.1416797
480,480,480,480,480,480,480,480,480,480,480,480,481,16088273,490.0,2,1,1,$490 per week,"522/803 Dandenong Road, Malvern East VIC 3145",Apartment / Unit / Flat,new,2129.0,"(-37.8844555, 145.0669837)",-37.8844555,145.0669837
481,481,481,481,481,481,481,481,481,481,481,481,482,16088272,800.0,3,2,1,$800,"66 Tinning Street, Brunswick VIC 3056",Townhouse,new,3477.0,"(-37.7595759, 144.9628043)",-37.7595759,144.9628043
482,482,482,482,482,482,482,482,482,482,482,482,483,14341209,425.0,1,1,1,$425.00 per week,"305/33 Judd Street, Richmond VIC 3121",Apartment / Unit / Flat,recentlyUpdated,1847.0,"(-37.8174369, 144.9952241)",-37.8174369,144.9952241
483,483,483,483,483,483,483,483,483,483,483,483,486,16088259,450.0,1,1,0,$450 weekly,"1302/81 A'beckett Street, Melbourne VIC 3000",Apartment / Unit / Flat,new,1955.0,"(-37.8096114, 144.9595749)",-37.8096114,144.9595749
484,484,484,484,484,484,484,484,484,484,484,484,487,16088255,490.0,2,1,1,$490 per week,"18/37-39 Carroll Crescent, Glen Iris VIC 3146",Apartment / Unit / Flat,new,2129.0,"(-37.8525135, 145.0503711)",-37.8525135,145.0503711
485,485,485,485,485,485,485,485,485,485,485,485,488,15302531,850.0,3,2,4,$850 per week,"14 Norman Street, Coburg VIC 3058",House,recentlyUpdated,3694.0,"(-37.750593, 144.9640335)",-37.750593,144.9640335
486,486,486,486,486,486,486,486,486,486,486,486,489,16088236,370.0,2,1,1,$370.00,"2/175 Arthur Street, Fairfield VIC 3078",Apartment / Unit / Flat,new,1608.0,"(-37.7832237, 145.0185674)",-37.7832237,145.0185674
487,487,487,487,487,487,487,487,487,487,487,487,490,16088235,450.0,2,1,1,$450 weekly,"818 Sydney Rd, Coburg North VIC 3058",Townhouse,new,1955.0,"(-37.728745, 144.9638762)",-37.728745,144.9638762
488,488,488,488,488,488,488,488,488,488,488,488,491,12659355,1225.0,4,2,2,$1225 per week,"68 Yarra Boulevard, Richmond VIC 3121",Townhouse,recentlyUpdated,7350.0,"(-37.8202944, 145.0144523)",-37.8202944,145.0144523
489,489,489,489,489,489,489,489,489,489,489,489,492,13133669,440.0,3,1,0,"$440pw/$1,912pcm","34 Stott Street, Box Hill South VIC 3128",House,recentlyUpdated,1912.0,"(-37.8427864, 145.1121738)",-37.8427864,145.1121738
490,490,490,490,490,490,490,490,490,490,490,490,493,16088217,440.0,4,2,2,$440,"5 Inglis Street, Maddingley VIC 3340",House,new,1912.0,"(-37.6843297, 144.4257213)",-37.6843297,144.4257213
